cnty_fips,county_name,hd_rate,hd_range,income,income_range,lat,lon,obesity_rate,obesity_range,smoking_rate,smoking_range,65over_rate,65over_range
6001,"""Alameda, (CA)""",214,52.7 - 283.1 (647),108000,"""$64,000 - $152,000 (625)""",37.647139,-121.912488,22,11.0 - 28.6 (634),11.3,6.9 - 16.9 (649),13.5,3.2 - 15.2 (656)
1001,"""Autauga, (AL)""",381.2,361.0 - 416.0 (643),58000,"""$56,000 - $64,000 (626)""",32.532237,-86.64644,32.7,32.3 - 35.1 (629),19.4,18.9 - 20.9 (639),15,3.2 - 15.2 (656)
6005,"""Amador, (CA)""",300,283.2 - 322.1 (641),63000,"""$56,000 - $64,000 (626)""",38.443549,-120.653858,29.8,28.7 - 32.2 (638),14.6,6.9 - 16.9 (649),26.7,22.1 - 56.7 (636)
6007,"""Butte, (CA)""",333.9,322.2 - 360.9 (645),58000,"""$56,000 - $64,000 (626)""",39.665336,-121.603209,30.3,28.7 - 32.2 (638),15.3,6.9 - 16.9 (649),18,17.6 - 19.4 (617)
6009,"""Calaveras, (CA)""",297.1,283.2 - 322.1 (641),68000,"""$64,000 - $152,000 (625)""",38.191068,-120.554107,28.1,11.0 - 28.6 (634),13.9,6.9 - 16.9 (649),27.5,22.1 - 56.7 (636)
6011,"""Colusa, (CA)""",302.3,283.2 - 322.1 (641),59000,"""$56,000 - $64,000 (626)""",39.177739,-122.237563,38.8,38.3 - 58.9 (619),15.3,6.9 - 16.9 (649),14.4,3.2 - 15.2 (656)
1003,"""Baldwin, (AL)""",366.1,361.0 - 416.0 (643),60000,"""$56,000 - $64,000 (626)""",30.659218,-87.746067,30.1,28.7 - 32.2 (638),17.5,17.0 - 18.8 (619),20,19.5 - 22.0 (652)
6013,"""Contra Costa, (CA)""",206.8,52.7 - 283.1 (647),107000,"""$64,000 - $152,000 (625)""",37.919479,-121.951543,24.9,11.0 - 28.6 (634),11,6.9 - 16.9 (649),15.4,15.3 - 17.5 (659)
6015,"""Del Norte, (CA)""",312.8,283.2 - 322.1 (641),49000,"""$44,000 - $51,000 (724)""",41.749903,-123.980998,33.9,32.3 - 35.1 (629),18.8,17.0 - 18.8 (619),17.2,15.3 - 17.5 (659)
6017,"""El Dorado, (CA)""",252.2,52.7 - 283.1 (647),86000,"""$64,000 - $152,000 (625)""",38.785612,-120.534225,25.2,11.0 - 28.6 (634),12.7,6.9 - 16.9 (649),20.5,19.5 - 22.0 (652)
6021,"""Glenn, (CA)""",327.6,322.2 - 360.9 (645),56000,"""$51,000 - $56,000 (529)""",39.602546,-122.4017,34.1,32.3 - 35.1 (629),16.6,6.9 - 16.9 (649),15.9,15.3 - 17.5 (659)
1005,"""Barbour, (AL)""",547.6,416.1 - 810.5 (644),36000,"""$25,000 - $44,000 (637)""",31.870253,-85.405104,41.2,38.3 - 58.9 (619),24.5,23.5 - 45.7 (618),18.6,17.6 - 19.4 (617)
6023,"""Humboldt, (CA)""",308.4,283.2 - 322.1 (641),51000,"""$44,000 - $51,000 (724)""",40.706655,-123.926176,24.8,11.0 - 28.6 (634),16.1,6.9 - 16.9 (649),17.3,15.3 - 17.5 (659)
6031,"""Kings, (CA)""",330.9,322.2 - 360.9 (645),57000,"""$56,000 - $64,000 (626)""",36.072478,-119.81553,34,32.3 - 35.1 (629),17.1,17.0 - 18.8 (619),10,3.2 - 15.2 (656)
6033,"""Lake, (CA)""",312.9,283.2 - 322.1 (641),47000,"""$44,000 - $51,000 (724)""",39.094802,-122.746757,22.7,11.0 - 28.6 (634),17.1,17.0 - 18.8 (619),22.3,22.1 - 56.7 (636)
6035,"""Lassen, (CA)""",339.9,322.2 - 360.9 (645),54000,"""$51,000 - $56,000 (529)""",40.715287,-120.621223,32.8,32.3 - 35.1 (629),18.5,17.0 - 18.8 (619),14.2,3.2 - 15.2 (656)
1007,"""Bibb, (AL)""",501,416.1 - 810.5 (644),48000,"""$44,000 - $51,000 (724)""",33.015893,-87.127148,37.4,35.2 - 38.2 (622),22.7,21.0 - 23.4 (617),15.9,15.3 - 17.5 (659)
6041,"""Marin, (CA)""",173.1,52.7 - 283.1 (647),112000,"""$64,000 - $152,000 (625)""",38.051367,-122.746396,17.5,11.0 - 28.6 (634),9.2,6.9 - 16.9 (649),21.6,19.5 - 22.0 (652)
6043,"""Mariposa, (CA)""",321.6,283.2 - 322.1 (641),53000,"""$51,000 - $56,000 (529)""",37.574343,-119.911721,16.1,11.0 - 28.6 (634),14.5,6.9 - 16.9 (649),27.5,22.1 - 56.7 (636)
6045,"""Mendocino, (CA)""",282.6,52.7 - 283.1 (647),52000,"""$51,000 - $56,000 (529)""",39.432388,-123.442881,30.5,28.7 - 32.2 (638),15.8,6.9 - 16.9 (649),21.2,19.5 - 22.0 (652)
6047,"""Merced, (CA)""",302,283.2 - 322.1 (641),60000,"""$56,000 - $64,000 (626)""",37.194806,-120.722802,33.4,32.3 - 35.1 (629),16.3,6.9 - 16.9 (649),11,3.2 - 15.2 (656)
1009,"""Blount, (AL)""",435,416.1 - 810.5 (644),53000,"""$51,000 - $56,000 (529)""",33.977358,-86.56644,32.5,32.3 - 35.1 (629),22.1,21.0 - 23.4 (617),17.9,17.6 - 19.4 (617)
6049,"""Modoc, (CA)""",343.7,322.2 - 360.9 (645),45000,"""$44,000 - $51,000 (724)""",41.592918,-120.71837,26.1,11.0 - 28.6 (634),17,17.0 - 18.8 (619),27,22.1 - 56.7 (636)
6053,"""Monterey, (CA)""",213.2,52.7 - 283.1 (647),77000,"""$64,000 - $152,000 (625)""",36.240104,-121.315578,24.8,11.0 - 28.6 (634),13.6,6.9 - 16.9 (649),13.2,3.2 - 15.2 (656)
6055,"""Napa, (CA)""",257,52.7 - 283.1 (647),90000,"""$64,000 - $152,000 (625)""",38.5071,-122.325904,23.7,11.0 - 28.6 (634),11.8,6.9 - 16.9 (649),18.6,17.6 - 19.4 (617)
6057,"""Nevada, (CA)""",264.2,52.7 - 283.1 (647),70000,"""$64,000 - $152,000 (625)""",39.297508,-120.771343,18.1,11.0 - 28.6 (634),12.5,6.9 - 16.9 (649),26.5,22.1 - 56.7 (636)
1011,"""Bullock, (AL)""",445.4,416.1 - 810.5 (644),32000,"""$25,000 - $44,000 (637)""",32.101759,-85.717261,46.4,38.3 - 58.9 (619),24.4,23.5 - 45.7 (618),16,15.3 - 17.5 (659)
6061,"""Placer, (CA)""",242.2,52.7 - 283.1 (647),98000,"""$64,000 - $152,000 (625)""",39.062032,-120.722718,20.2,11.0 - 28.6 (634),11.1,6.9 - 16.9 (649),19.1,17.6 - 19.4 (617)
6063,"""Plumas, (CA)""",328.4,322.2 - 360.9 (645),59000,"""$56,000 - $64,000 (626)""",39.992295,-120.824371,23.8,11.0 - 28.6 (634),14,6.9 - 16.9 (649),27.1,22.1 - 56.7 (636)
6067,"""Sacramento, (CA)""",288.2,283.2 - 322.1 (641),72000,"""$64,000 - $152,000 (625)""",38.450136,-121.344329,29.7,28.7 - 32.2 (638),14,6.9 - 16.9 (649),13.7,3.2 - 15.2 (656)
6069,"""San Benito, (CA)""",234.2,52.7 - 283.1 (647),84000,"""$64,000 - $152,000 (625)""",36.611651,-121.085811,35.4,35.2 - 38.2 (622),13.1,6.9 - 16.9 (649),12.5,3.2 - 15.2 (656)
1013,"""Butler, (AL)""",412.9,361.0 - 416.0 (643),40000,"""$25,000 - $44,000 (637)""",31.751667,-86.681969,47.3,38.3 - 58.9 (619),21.4,21.0 - 23.4 (617),19.7,19.5 - 22.0 (652)
6075,"""San Francisco, (CA)""",210.9,52.7 - 283.1 (647),122000,"""$64,000 - $152,000 (625)""",37.727239,-123.032229,17,11.0 - 28.6 (634),11.7,6.9 - 16.9 (649),15.4,15.3 - 17.5 (659)
6077,"""San Joaquin, (CA)""",297.8,283.2 - 322.1 (641),68000,"""$64,000 - $152,000 (625)""",37.934982,-121.272244,35.3,35.2 - 38.2 (622),14.8,6.9 - 16.9 (649),12.5,3.2 - 15.2 (656)
6079,"""San Luis Obispo, (CA)""",234.1,52.7 - 283.1 (647),77000,"""$64,000 - $152,000 (625)""",35.388189,-120.448897,28.5,11.0 - 28.6 (634),12.4,6.9 - 16.9 (649),19.4,17.6 - 19.4 (617)
6081,"""San Mateo, (CA)""",208.9,52.7 - 283.1 (647),135000,"""$64,000 - $152,000 (625)""",37.414672,-122.371546,22.6,11.0 - 28.6 (634),10.1,6.9 - 16.9 (649),15.8,15.3 - 17.5 (659)
1015,"""Calhoun, (AL)""",589.4,416.1 - 810.5 (644),48000,"""$44,000 - $51,000 (724)""",33.770516,-85.827909,39.7,38.3 - 58.9 (619),20.4,18.9 - 20.9 (639),17.2,15.3 - 17.5 (659)
6083,"""Santa Barbara, (CA)""",259.6,52.7 - 283.1 (647),75000,"""$64,000 - $152,000 (625)""",34.536677,-120.038364,24.1,11.0 - 28.6 (634),12.6,6.9 - 16.9 (649),15,3.2 - 15.2 (656)
6085,"""Santa Clara, (CA)""",184.3,52.7 - 283.1 (647),132000,"""$64,000 - $152,000 (625)""",37.221614,-121.68954,19.7,11.0 - 28.6 (634),9.7,6.9 - 16.9 (649),13.2,3.2 - 15.2 (656)
6087,"""Santa Cruz, (CA)""",209.2,52.7 - 283.1 (647),86000,"""$64,000 - $152,000 (625)""",37.012347,-122.007789,19,11.0 - 28.6 (634),12,6.9 - 16.9 (649),15.8,15.3 - 17.5 (659)
6089,"""Shasta, (CA)""",375.8,361.0 - 416.0 (643),61000,"""$56,000 - $64,000 (626)""",40.760514,-122.043556,26.4,11.0 - 28.6 (634),16.1,6.9 - 16.9 (649),20.2,19.5 - 22.0 (652)
1017,"""Chambers, (AL)""",354.7,322.2 - 360.9 (645),42000,"""$25,000 - $44,000 (637)""",32.915504,-85.394032,42,38.3 - 58.9 (619),22,21.0 - 23.4 (617),19.2,17.6 - 19.4 (617)
6091,"""Sierra, (CA)""",326.8,322.2 - 360.9 (645),56000,"""$51,000 - $56,000 (529)""",39.576925,-120.521993,19.9,11.0 - 28.6 (634),14.4,6.9 - 16.9 (649),29.3,22.1 - 56.7 (636)
6093,"""Siskiyou, (CA)""",327.6,322.2 - 360.9 (645),46000,"""$44,000 - $51,000 (724)""",41.587986,-122.533287,34.7,32.3 - 35.1 (629),15.9,6.9 - 16.9 (649),24.7,22.1 - 56.7 (636)
6095,"""Solano, (CA)""",225.8,52.7 - 283.1 (647),86000,"""$64,000 - $152,000 (625)""",38.267226,-121.939594,29,28.7 - 32.2 (638),13.6,6.9 - 16.9 (649),15.2,3.2 - 15.2 (656)
6097,"""Sonoma, (CA)""",237,52.7 - 283.1 (647),87000,"""$64,000 - $152,000 (625)""",38.525182,-122.92611,23.7,11.0 - 28.6 (634),12.4,6.9 - 16.9 (649),19,17.6 - 19.4 (617)
1019,"""Cherokee, (AL)""",433.9,416.1 - 810.5 (644),46000,"""$44,000 - $51,000 (724)""",34.069515,-85.654242,38.1,35.2 - 38.2 (622),21.8,21.0 - 23.4 (617),22.4,22.1 - 56.7 (636)
6099,"""Stanislaus, (CA)""",352.6,322.2 - 360.9 (645),63000,"""$56,000 - $64,000 (626)""",37.562316,-121.002831,31.4,28.7 - 32.2 (638),15.7,6.9 - 16.9 (649),12.8,3.2 - 15.2 (656)
6101,"""Sutter, (CA)""",296.3,283.2 - 322.1 (641),61000,"""$56,000 - $64,000 (626)""",39.03619,-121.70394,29.7,28.7 - 32.2 (638),15.6,6.9 - 16.9 (649),15,3.2 - 15.2 (656)
6103,"""Tehama, (CA)""",364.3,361.0 - 416.0 (643),52000,"""$51,000 - $56,000 (529)""",40.126157,-122.232274,34.3,32.3 - 35.1 (629),17.3,17.0 - 18.8 (619),19.3,17.6 - 19.4 (617)
6105,"""Trinity, (CA)""",328.6,322.2 - 360.9 (645),44000,"""$25,000 - $44,000 (637)""",40.647858,-123.114666,28.9,28.7 - 32.2 (638),17.2,17.0 - 18.8 (619),26.9,22.1 - 56.7 (636)
1021,"""Chilton, (AL)""",485,416.1 - 810.5 (644),50000,"""$44,000 - $51,000 (724)""",32.854051,-86.726607,42.1,38.3 - 58.9 (619),22.8,21.0 - 23.4 (617),16,15.3 - 17.5 (659)
6109,"""Tuolumne, (CA)""",300.8,283.2 - 322.1 (641),65000,"""$64,000 - $152,000 (625)""",38.021434,-119.964733,29.5,28.7 - 32.2 (638),14.4,6.9 - 16.9 (649),25.6,22.1 - 56.7 (636)
6113,"""Yolo, (CA)""",247.9,52.7 - 283.1 (647),71000,"""$64,000 - $152,000 (625)""",38.679609,-121.90275,24.5,11.0 - 28.6 (634),12.9,6.9 - 16.9 (649),12.1,3.2 - 15.2 (656)
6115,"""Yuba, (CA)""",370.1,361.0 - 416.0 (643),57000,"""$56,000 - $64,000 (626)""",39.27013,-121.344259,29.4,28.7 - 32.2 (638),17.2,17.0 - 18.8 (619),12.3,3.2 - 15.2 (656)
41003,"""Benton, (OR)""",223.3,52.7 - 283.1 (647),69000,"""$64,000 - $152,000 (625)""",44.493882,-123.424664,21.7,11.0 - 28.6 (634),13.2,6.9 - 16.9 (649),15.5,15.3 - 17.5 (659)
1023,"""Choctaw, (AL)""",527.7,416.1 - 810.5 (644),40000,"""$25,000 - $44,000 (637)""",31.990954,-88.248889,46.7,38.3 - 58.9 (619),21.4,21.0 - 23.4 (617),22.6,22.1 - 56.7 (636)
41005,"""Clackamas, (OR)""",230.1,52.7 - 283.1 (647),81000,"""$64,000 - $152,000 (625)""",45.160493,-122.195127,27.6,11.0 - 28.6 (634),16.3,6.9 - 16.9 (649),17.6,17.6 - 19.4 (617)
41007,"""Clatsop, (OR)""",282.3,52.7 - 283.1 (647),59000,"""$56,000 - $64,000 (626)""",46.024509,-123.705037,31.6,28.7 - 32.2 (638),17.1,17.0 - 18.8 (619),21.4,19.5 - 22.0 (652)
41009,"""Columbia, (OR)""",287.2,283.2 - 322.1 (641),72000,"""$64,000 - $152,000 (625)""",45.941932,-123.081079,33.6,32.3 - 35.1 (629),19.8,18.9 - 20.9 (639),18.3,17.6 - 19.4 (617)
41011,"""Coos, (OR)""",350.3,322.2 - 360.9 (645),50000,"""$44,000 - $51,000 (724)""",43.18591,-124.094133,38.6,38.3 - 58.9 (619),19.8,18.9 - 20.9 (639),25.5,22.1 - 56.7 (636)
1025,"""Clarke, (AL)""",438.1,416.1 - 810.5 (644),44000,"""$25,000 - $44,000 (637)""",31.685521,-87.818624,36.1,35.2 - 38.2 (622),22.8,21.0 - 23.4 (617),19.4,17.6 - 19.4 (617)
41013,"""Crook, (OR)""",267.9,52.7 - 283.1 (647),59000,"""$56,000 - $64,000 (626)""",44.163054,-120.371585,32.6,32.3 - 35.1 (629),19.1,18.9 - 20.9 (639),24.8,22.1 - 56.7 (636)
41015,"""Curry, (OR)""",338.3,322.2 - 360.9 (645),51000,"""$44,000 - $51,000 (724)""",42.466439,-124.210929,36.7,35.2 - 38.2 (622),16.7,6.9 - 16.9 (649),33.7,22.1 - 56.7 (636)
41017,"""Deschutes, (OR)""",244.3,52.7 - 283.1 (647),72000,"""$64,000 - $152,000 (625)""",43.915118,-121.225575,25.4,11.0 - 28.6 (634),15.7,6.9 - 16.9 (649),19.6,19.5 - 22.0 (652)
41019,"""Douglas, (OR)""",268.3,52.7 - 283.1 (647),49000,"""$44,000 - $51,000 (724)""",43.286328,-123.154476,33.8,32.3 - 35.1 (629),20,18.9 - 20.9 (639),25.2,22.1 - 56.7 (636)
1027,"""Clay, (AL)""",509.6,416.1 - 810.5 (644),41000,"""$25,000 - $44,000 (637)""",33.2704,-85.863525,37.1,35.2 - 38.2 (622),23.6,23.5 - 45.7 (618),20.2,19.5 - 22.0 (652)
41021,"""Gilliam, (OR)""",247.9,52.7 - 283.1 (647),61000,"""$56,000 - $64,000 (626)""",45.382955,-120.276246,31.6,28.7 - 32.2 (638),17.1,17.0 - 18.8 (619),25.3,22.1 - 56.7 (636)
41027,"""Hood River, (OR)""",265.7,52.7 - 283.1 (647),69000,"""$64,000 - $152,000 (625)""",45.511775,-121.655976,29.4,28.7 - 32.2 (638),16.7,6.9 - 16.9 (649),15.6,15.3 - 17.5 (659)
41029,"""Jackson, (OR)""",236.7,52.7 - 283.1 (647),56000,"""$51,000 - $56,000 (529)""",42.411621,-122.675611,26.7,11.0 - 28.6 (634),19.4,18.9 - 20.9 (639),21.5,19.5 - 22.0 (652)
41031,"""Jefferson, (OR)""",271.1,52.7 - 283.1 (647),53000,"""$51,000 - $56,000 (529)""",44.645151,-121.178632,36.9,35.2 - 38.2 (622),20.8,18.9 - 20.9 (639),19.3,17.6 - 19.4 (617)
1029,"""Cleburne, (AL)""",543.9,416.1 - 810.5 (644),51000,"""$44,000 - $51,000 (724)""",33.671964,-85.516126,34,32.3 - 35.1 (629),22.9,21.0 - 23.4 (617),19.4,17.6 - 19.4 (617)
41033,"""Josephine, (OR)""",262,52.7 - 283.1 (647),48000,"""$44,000 - $51,000 (724)""",42.386983,-123.57162,32.2,28.7 - 32.2 (638),20.7,18.9 - 20.9 (639),25.7,22.1 - 56.7 (636)
41035,"""Klamath, (OR)""",294.3,283.2 - 322.1 (641),53000,"""$51,000 - $56,000 (529)""",42.683761,-121.646168,30.1,28.7 - 32.2 (638),20.3,18.9 - 20.9 (639),20.7,19.5 - 22.0 (652)
41037,"""Lake, (OR)""",276.3,52.7 - 283.1 (647),48000,"""$44,000 - $51,000 (724)""",42.788401,-120.38979,36.5,35.2 - 38.2 (622),20.6,18.9 - 20.9 (639),24.6,22.1 - 56.7 (636)
41039,"""Lane, (OR)""",256.7,52.7 - 283.1 (647),57000,"""$56,000 - $64,000 (626)""",43.928334,-122.897581,28.5,11.0 - 28.6 (634),16.2,6.9 - 16.9 (649),18.8,17.6 - 19.4 (617)
1031,"""Coffee, (AL)""",506.5,416.1 - 810.5 (644),57000,"""$56,000 - $64,000 (626)""",31.402258,-85.989602,36.6,35.2 - 38.2 (622),20.7,18.9 - 20.9 (639),16.5,15.3 - 17.5 (659)
41041,"""Lincoln, (OR)""",256.3,52.7 - 283.1 (647),52000,"""$51,000 - $56,000 (529)""",44.641061,-123.911212,36.6,35.2 - 38.2 (622),17.7,17.0 - 18.8 (619),27.9,22.1 - 56.7 (636)
41043,"""Linn, (OR)""",294.8,283.2 - 322.1 (641),61000,"""$56,000 - $64,000 (626)""",44.488898,-122.537208,34.5,32.3 - 35.1 (629),18.1,17.0 - 18.8 (619),18.3,17.6 - 19.4 (617)
41047,"""Marion, (OR)""",246.6,52.7 - 283.1 (647),64000,"""$56,000 - $64,000 (626)""",44.900898,-122.57626,34.8,32.3 - 35.1 (629),17.8,17.0 - 18.8 (619),15.3,15.3 - 17.5 (659)
41051,"""Multnomah, (OR)""",256.6,52.7 - 283.1 (647),72000,"""$64,000 - $152,000 (625)""",45.547711,-122.417363,23.9,11.0 - 28.6 (634),16.4,6.9 - 16.9 (649),13,3.2 - 15.2 (656)
1033,"""Colbert, (AL)""",488.3,416.1 - 810.5 (644),47000,"""$44,000 - $51,000 (724)""",34.703112,-87.801457,36.5,35.2 - 38.2 (622),20.8,18.9 - 20.9 (639),19.4,17.6 - 19.4 (617)
41053,"""Polk, (OR)""",228.5,52.7 - 283.1 (647),70000,"""$64,000 - $152,000 (625)""",44.900372,-123.39864,35.2,35.2 - 38.2 (622),16.7,6.9 - 16.9 (649),17.5,15.3 - 17.5 (659)
41055,"""Sherman, (OR)""",273.3,52.7 - 283.1 (647),60000,"""$56,000 - $64,000 (626)""",45.399216,-120.678512,34.9,32.3 - 35.1 (629),17.5,17.0 - 18.8 (619),26.1,22.1 - 56.7 (636)
41057,"""Tillamook, (OR)""",249.5,52.7 - 283.1 (647),52000,"""$51,000 - $56,000 (529)""",45.45589,-123.759299,38.4,38.3 - 58.9 (619),17.2,17.0 - 18.8 (619),24.9,22.1 - 56.7 (636)
41065,"""Wasco, (OR)""",265.4,52.7 - 283.1 (647),57000,"""$56,000 - $64,000 (626)""",45.164536,-121.165069,28.1,11.0 - 28.6 (634),18.6,17.0 - 18.8 (619),20.2,19.5 - 22.0 (652)
1035,"""Conecuh, (AL)""",441.6,416.1 - 810.5 (644),42000,"""$25,000 - $44,000 (637)""",31.430926,-86.988722,42.5,38.3 - 58.9 (619),23.8,23.5 - 45.7 (618),22.2,22.1 - 56.7 (636)
41067,"""Washington, (OR)""",213.3,52.7 - 283.1 (647),86000,"""$64,000 - $152,000 (625)""",45.553542,-123.097615,28.8,28.7 - 32.2 (638),13.3,6.9 - 16.9 (649),13,3.2 - 15.2 (656)
41069,"""Wheeler, (OR)""",286.2,283.2 - 322.1 (641),43000,"""$25,000 - $44,000 (637)""",44.736415,-120.026861,26,11.0 - 28.6 (634),18.3,17.0 - 18.8 (619),35.8,22.1 - 56.7 (636)
41071,"""Yamhill, (OR)""",267.6,52.7 - 283.1 (647),72000,"""$64,000 - $152,000 (625)""",45.247827,-123.316399,34.7,32.3 - 35.1 (629),16.9,6.9 - 16.9 (649),16.8,15.3 - 17.5 (659)
53007,"""Chelan, (WA)""",243.2,52.7 - 283.1 (647),60000,"""$56,000 - $64,000 (626)""",47.860974,-120.619041,32.9,32.3 - 35.1 (629),13.8,6.9 - 16.9 (649),18.6,17.6 - 19.4 (617)
1037,"""Coosa, (AL)""",441.4,416.1 - 810.5 (644),42000,"""$25,000 - $44,000 (637)""",32.931445,-86.243482,44.6,38.3 - 58.9 (619),22.9,21.0 - 23.4 (617),22.6,22.1 - 56.7 (636)
53009,"""Clallam, (WA)""",255.2,52.7 - 283.1 (647),58000,"""$56,000 - $64,000 (626)""",48.110903,-123.88986,30.4,28.7 - 32.2 (638),14.7,6.9 - 16.9 (649),28.8,22.1 - 56.7 (636)
53011,"""Clark, (WA)""",280.7,52.7 - 283.1 (647),80000,"""$64,000 - $152,000 (625)""",45.77173,-122.485953,31.8,28.7 - 32.2 (638),14.2,6.9 - 16.9 (649),15,3.2 - 15.2 (656)
53015,"""Cowlitz, (WA)""",331.8,322.2 - 360.9 (645),57000,"""$56,000 - $64,000 (626)""",46.196785,-122.67846,37.7,35.2 - 38.2 (622),17.1,17.0 - 18.8 (619),18.8,17.6 - 19.4 (617)
53027,"""Grays Harbor, (WA)""",306.4,283.2 - 322.1 (641),59000,"""$56,000 - $64,000 (626)""",47.113732,-123.826735,36.1,35.2 - 38.2 (622),16.7,6.9 - 16.9 (649),21,19.5 - 22.0 (652)
1039,"""Covington, (AL)""",514.5,416.1 - 810.5 (644),45000,"""$44,000 - $51,000 (724)""",31.243987,-86.448721,35.9,35.2 - 38.2 (622),21.9,21.0 - 23.4 (617),20.8,19.5 - 22.0 (652)
53029,"""Island, (WA)""",251.8,52.7 - 283.1 (647),72000,"""$64,000 - $152,000 (625)""",48.158554,-122.670649,30.6,28.7 - 32.2 (638),12.8,6.9 - 16.9 (649),24,22.1 - 56.7 (636)
53031,"""Jefferson, (WA)""",257,52.7 - 283.1 (647),61000,"""$56,000 - $64,000 (626)""",47.805708,-123.527057,22.2,11.0 - 28.6 (634),11,6.9 - 16.9 (649),35.3,22.1 - 56.7 (636)
53033,"""King, (WA)""",225,52.7 - 283.1 (647),102000,"""$64,000 - $152,000 (625)""",47.490552,-121.833977,22.4,11.0 - 28.6 (634),10.9,6.9 - 16.9 (649),13,3.2 - 15.2 (656)
53035,"""Kitsap, (WA)""",278.7,52.7 - 283.1 (647),79000,"""$64,000 - $152,000 (625)""",47.639595,-122.649634,30.3,28.7 - 32.2 (638),13.8,6.9 - 16.9 (649),17.4,15.3 - 17.5 (659)
1041,"""Crenshaw, (AL)""",485.4,416.1 - 810.5 (644),43000,"""$25,000 - $44,000 (637)""",31.730311,-86.320038,35.1,32.3 - 35.1 (629),22,21.0 - 23.4 (617),18.8,17.6 - 19.4 (617)
53037,"""Kittitas, (WA)""",269.1,52.7 - 283.1 (647),59000,"""$56,000 - $64,000 (626)""",47.124441,-120.676709,27.6,11.0 - 28.6 (634),13.3,6.9 - 16.9 (649),15.7,15.3 - 17.5 (659)
53039,"""Klickitat, (WA)""",204.7,52.7 - 283.1 (647),61000,"""$56,000 - $64,000 (626)""",45.870446,-120.779305,27,11.0 - 28.6 (634),14.7,6.9 - 16.9 (649),23.6,22.1 - 56.7 (636)
53041,"""Lewis, (WA)""",365.3,361.0 - 416.0 (643),59000,"""$56,000 - $64,000 (626)""",46.580071,-122.377444,33.1,32.3 - 35.1 (629),17,17.0 - 18.8 (619),20.7,19.5 - 22.0 (652)
53045,"""Mason, (WA)""",289.2,283.2 - 322.1 (641),64000,"""$56,000 - $64,000 (626)""",47.350832,-123.173103,37.8,35.2 - 38.2 (622),16.9,6.9 - 16.9 (649),22.5,22.1 - 56.7 (636)
1043,"""Cullman, (AL)""",533.5,416.1 - 810.5 (644),51000,"""$44,000 - $51,000 (724)""",34.131923,-86.869267,35.6,35.2 - 38.2 (622),21.7,21.0 - 23.4 (617),18.2,17.6 - 19.4 (617)
53047,"""Okanogan, (WA)""",278.2,52.7 - 283.1 (647),45000,"""$44,000 - $51,000 (724)""",48.548453,-119.742235,32.4,32.3 - 35.1 (629),17.6,17.0 - 18.8 (619),21.1,19.5 - 22.0 (652)
53049,"""Pacific, (WA)""",455.8,416.1 - 810.5 (644),51000,"""$44,000 - $51,000 (724)""",46.556587,-123.782419,38.2,35.2 - 38.2 (622),16.4,6.9 - 16.9 (649),30.3,22.1 - 56.7 (636)
53053,"""Pierce, (WA)""",307.6,283.2 - 322.1 (641),79000,"""$64,000 - $152,000 (625)""",47.051413,-122.15324,31.6,28.7 - 32.2 (638),13.9,6.9 - 16.9 (649),13.5,3.2 - 15.2 (656)
53055,"""San Juan, (WA)""",157.1,52.7 - 283.1 (647),69000,"""$64,000 - $152,000 (625)""",48.50719,-123.103769,20,11.0 - 28.6 (634),10,6.9 - 16.9 (649),32.9,22.1 - 56.7 (636)
1045,"""Dale, (AL)""",405.7,361.0 - 416.0 (643),45000,"""$44,000 - $51,000 (724)""",31.430654,-85.609476,41.8,38.3 - 58.9 (619),20.8,18.9 - 20.9 (639),16.4,15.3 - 17.5 (659)
53057,"""Skagit, (WA)""",250,52.7 - 283.1 (647),68000,"""$64,000 - $152,000 (625)""",48.493292,-121.81577,30.4,28.7 - 32.2 (638),15.1,6.9 - 16.9 (649),20.3,19.5 - 22.0 (652)
53059,"""Skamania, (WA)""",234.5,52.7 - 283.1 (647),69000,"""$64,000 - $152,000 (625)""",46.024785,-121.953232,34.7,32.3 - 35.1 (629),16,6.9 - 16.9 (649),19.9,19.5 - 22.0 (652)
53061,"""Snohomish, (WA)""",248.1,52.7 - 283.1 (647),89000,"""$64,000 - $152,000 (625)""",48.054913,-121.765038,30.1,28.7 - 32.2 (638),13.1,6.9 - 16.9 (649),13.1,3.2 - 15.2 (656)
53067,"""Thurston, (WA)""",254.9,52.7 - 283.1 (647),78000,"""$64,000 - $152,000 (625)""",46.935822,-122.830152,30,28.7 - 32.2 (638),12.8,6.9 - 16.9 (649),16.8,15.3 - 17.5 (659)
1047,"""Dallas, (AL)""",597.2,416.1 - 810.5 (644),34000,"""$25,000 - $44,000 (637)""",32.333526,-87.11436,42.8,38.3 - 58.9 (619),23.7,23.5 - 45.7 (618),17.4,15.3 - 17.5 (659)
53069,"""Wahkiakum, (WA)""",304.4,283.2 - 322.1 (641),61000,"""$56,000 - $64,000 (626)""",46.294638,-123.424458,34.7,32.3 - 35.1 (629),14,6.9 - 16.9 (649),33,22.1 - 56.7 (636)
53073,"""Whatcom, (WA)""",248,52.7 - 283.1 (647),69000,"""$64,000 - $152,000 (625)""",48.842653,-121.836432,27.9,11.0 - 28.6 (634),12.9,6.9 - 16.9 (649),16.9,15.3 - 17.5 (659)
53077,"""Yakima, (WA)""",385.1,361.0 - 416.0 (643),56000,"""$51,000 - $56,000 (529)""",46.456558,-120.740145,34.3,32.3 - 35.1 (629),15.5,6.9 - 16.9 (649),13.5,3.2 - 15.2 (656)
4001,"""Apache, (AZ)""",271.2,52.7 - 283.1 (647),35000,"""$25,000 - $44,000 (637)""",35.385084,-109.490172,36,35.2 - 38.2 (622),24,23.5 - 45.7 (618),15,3.2 - 15.2 (656)
1049,"""DeKalb, (AL)""",468.3,416.1 - 810.5 (644),44000,"""$25,000 - $44,000 (637)""",34.460915,-85.804021,30.3,28.7 - 32.2 (638),24.3,23.5 - 45.7 (618),16.7,15.3 - 17.5 (659)
4003,"""Cochise, (AZ)""",305.5,283.2 - 322.1 (641),49000,"""$44,000 - $51,000 (724)""",31.840129,-109.775163,31.4,28.7 - 32.2 (638),16,6.9 - 16.9 (649),21.7,19.5 - 22.0 (652)
4005,"""Coconino, (AZ)""",231.5,52.7 - 283.1 (647),58000,"""$56,000 - $64,000 (626)""",35.829692,-111.773728,24.5,11.0 - 28.6 (634),16,6.9 - 16.9 (649),12,3.2 - 15.2 (656)
4007,"""Gila, (AZ)""",322.6,322.2 - 360.9 (645),46000,"""$44,000 - $51,000 (724)""",33.789618,-110.81187,33.1,32.3 - 35.1 (629),20,18.9 - 20.9 (639),28.4,22.1 - 56.7 (636)
4009,"""Graham, (AZ)""",279.4,52.7 - 283.1 (647),51000,"""$44,000 - $51,000 (724)""",32.931828,-109.87831,34.1,32.3 - 35.1 (629),19.5,18.9 - 20.9 (639),13.7,3.2 - 15.2 (656)
1051,"""Elmore, (AL)""",480.8,416.1 - 810.5 (644),62000,"""$56,000 - $64,000 (626)""",32.597229,-86.142735,34.9,32.3 - 35.1 (629),19.1,18.9 - 20.9 (639),14.9,3.2 - 15.2 (656)
4011,"""Greenlee, (AZ)""",302.4,283.2 - 322.1 (641),68000,"""$64,000 - $152,000 (625)""",33.238872,-109.242323,30,28.7 - 32.2 (638),16.8,6.9 - 16.9 (649),12.4,3.2 - 15.2 (656)
4012,"""La Paz, (AZ)""",375.2,361.0 - 416.0 (643),39000,"""$25,000 - $44,000 (637)""",33.72761,-114.038806,34.3,32.3 - 35.1 (629),17.5,17.0 - 18.8 (619),38.6,22.1 - 56.7 (636)
4013,"""Maricopa, (AZ)""",259.8,52.7 - 283.1 (647),69000,"""$64,000 - $152,000 (625)""",33.345176,-112.49893,27,11.0 - 28.6 (634),15.1,6.9 - 16.9 (649),14.8,3.2 - 15.2 (656)
4015,"""Mohave, (AZ)""",395.4,361.0 - 416.0 (643),50000,"""$44,000 - $51,000 (724)""",35.717705,-113.749689,31.3,28.7 - 32.2 (638),21.8,21.0 - 23.4 (617),29.6,22.1 - 56.7 (636)
1053,"""Escambia, (AL)""",412.7,361.0 - 416.0 (643),43000,"""$25,000 - $44,000 (637)""",31.122287,-87.16841,36.4,35.2 - 38.2 (622),24.6,23.5 - 45.7 (618),17.7,17.6 - 19.4 (617)
4017,"""Navajo, (AZ)""",270.5,52.7 - 283.1 (647),41000,"""$25,000 - $44,000 (637)""",35.390785,-110.321025,33.8,32.3 - 35.1 (629),22.1,21.0 - 23.4 (617),17.4,15.3 - 17.5 (659)
4019,"""Pima, (AZ)""",262.1,52.7 - 283.1 (647),56000,"""$51,000 - $56,000 (529)""",32.128038,-111.783657,25.7,11.0 - 28.6 (634),15.8,6.9 - 16.9 (649),19.2,17.6 - 19.4 (617)
4021,"""Pinal, (AZ)""",233.8,52.7 - 283.1 (647),62000,"""$56,000 - $64,000 (626)""",32.918521,-111.366339,35,32.3 - 35.1 (629),18,17.0 - 18.8 (619),19.9,19.5 - 22.0 (652)
4023,"""Santa Cruz, (AZ)""",227.8,52.7 - 283.1 (647),48000,"""$44,000 - $51,000 (724)""",31.525733,-110.845228,30.1,28.7 - 32.2 (638),14.8,6.9 - 16.9 (649),17.3,15.3 - 17.5 (659)
1055,"""Etowah, (AL)""",500.8,416.1 - 810.5 (644),43000,"""$25,000 - $44,000 (637)""",34.047641,-86.034263,35.9,35.2 - 38.2 (622),22.1,21.0 - 23.4 (617),18.7,17.6 - 19.4 (617)
4025,"""Yavapai, (AZ)""",269.6,52.7 - 283.1 (647),54000,"""$51,000 - $56,000 (529)""",34.631071,-112.577225,24.7,11.0 - 28.6 (634),15.6,6.9 - 16.9 (649),30.6,22.1 - 56.7 (636)
4027,"""Yuma, (AZ)""",252.1,52.7 - 283.1 (647),47000,"""$44,000 - $51,000 (724)""",32.773942,-113.910905,38.4,38.3 - 58.9 (619),15.5,6.9 - 16.9 (649),18.5,17.6 - 19.4 (617)
6003,"""Alpine, (CA)""",313.9,283.2 - 322.1 (641),58000,"""$56,000 - $64,000 (626)""",38.621783,-119.798352,16.8,11.0 - 28.6 (634),16.9,6.9 - 16.9 (649),29.9,22.1 - 56.7 (636)
6019,"""Fresno, (CA)""",331,322.2 - 360.9 (645),57000,"""$56,000 - $64,000 (626)""",36.761006,-119.655019,33,32.3 - 35.1 (629),15.7,6.9 - 16.9 (649),12,3.2 - 15.2 (656)
1057,"""Fayette, (AL)""",467,416.1 - 810.5 (644),44000,"""$25,000 - $44,000 (637)""",33.716157,-87.764292,37.8,35.2 - 38.2 (622),22.7,21.0 - 23.4 (617),20.8,19.5 - 22.0 (652)
6025,"""Imperial, (CA)""",253,52.7 - 283.1 (647),48000,"""$44,000 - $51,000 (724)""",33.040814,-115.3554,32.8,32.3 - 35.1 (629),15.4,6.9 - 16.9 (649),12.6,3.2 - 15.2 (656)
6027,"""Inyo, (CA)""",322.5,322.2 - 360.9 (645),60000,"""$56,000 - $64,000 (626)""",36.56216,-117.404209,27.1,11.0 - 28.6 (634),14.1,6.9 - 16.9 (649),22.8,22.1 - 56.7 (636)
6029,"""Kern, (CA)""",371.6,361.0 - 416.0 (643),53000,"""$51,000 - $56,000 (529)""",35.346629,-118.729506,31.1,28.7 - 32.2 (638),16.8,6.9 - 16.9 (649),10.7,3.2 - 15.2 (656)
6037,"""Los Angeles, (CA)""",286.7,283.2 - 322.1 (641),73000,"""$64,000 - $152,000 (625)""",34.196398,-118.261862,21.8,11.0 - 28.6 (634),12.7,6.9 - 16.9 (649),13.3,3.2 - 15.2 (656)
1059,"""Franklin, (AL)""",490.5,416.1 - 810.5 (644),45000,"""$44,000 - $51,000 (724)""",34.441989,-87.842814,36.6,35.2 - 38.2 (622),22,21.0 - 23.4 (617),16.9,15.3 - 17.5 (659)
6039,"""Madera, (CA)""",285.5,283.2 - 322.1 (641),61000,"""$56,000 - $64,000 (626)""",37.209821,-119.749802,36.7,35.2 - 38.2 (622),16.5,6.9 - 16.9 (649),13.8,3.2 - 15.2 (656)
6051,"""Mono, (CA)""",233,52.7 - 283.1 (647),66000,"""$64,000 - $152,000 (625)""",37.915836,-118.875167,28.2,11.0 - 28.6 (634),13.9,6.9 - 16.9 (649),14.3,3.2 - 15.2 (656)
6059,"""Orange, (CA)""",253.4,52.7 - 283.1 (647),96000,"""$64,000 - $152,000 (625)""",33.675687,-117.777207,19.4,11.0 - 28.6 (634),10.7,6.9 - 16.9 (649),14.4,3.2 - 15.2 (656)
6065,"""Riverside, (CA)""",336.5,322.2 - 360.9 (645),73000,"""$64,000 - $152,000 (625)""",33.729828,-116.002239,28.3,11.0 - 28.6 (634),13.4,6.9 - 16.9 (649),14.1,3.2 - 15.2 (656)
1061,"""Geneva, (AL)""",423.8,416.1 - 810.5 (644),43000,"""$25,000 - $44,000 (637)""",31.092382,-85.821022,41.5,38.3 - 58.9 (619),23.8,23.5 - 45.7 (618),20,19.5 - 22.0 (652)
6071,"""San Bernardino, (CA)""",358.5,322.2 - 360.9 (645),67000,"""$64,000 - $152,000 (625)""",34.856661,-116.181571,30.6,28.7 - 32.2 (638),15.1,6.9 - 16.9 (649),11.3,3.2 - 15.2 (656)
6073,"""San Diego, (CA)""",245.3,52.7 - 283.1 (647),84000,"""$64,000 - $152,000 (625)""",33.023604,-116.776117,20.1,11.0 - 28.6 (634),13,6.9 - 16.9 (649),13.7,3.2 - 15.2 (656)
6107,"""Tulare, (CA)""",353.4,322.2 - 360.9 (645),57000,"""$56,000 - $64,000 (626)""",36.228834,-118.781055,37.1,35.2 - 38.2 (622),17.5,17.0 - 18.8 (619),11.2,3.2 - 15.2 (656)
6111,"""Ventura, (CA)""",257.4,52.7 - 283.1 (647),91000,"""$64,000 - $152,000 (625)""",34.358748,-119.133145,19.9,11.0 - 28.6 (634),12.1,6.9 - 16.9 (649),15.1,3.2 - 15.2 (656)
1063,"""Greene, (AL)""",479.2,416.1 - 810.5 (644),29000,"""$25,000 - $44,000 (637)""",32.844497,-87.9642,38,35.2 - 38.2 (622),24.7,23.5 - 45.7 (618),21.3,19.5 - 22.0 (652)
8007,"""Archuleta, (CO)""",249,52.7 - 283.1 (647),58000,"""$56,000 - $64,000 (626)""",37.202395,-107.050863,24.7,11.0 - 28.6 (634),14.4,6.9 - 16.9 (649),25.5,22.1 - 56.7 (636)
8029,"""Delta, (CO)""",327.5,322.2 - 360.9 (645),52000,"""$51,000 - $56,000 (529)""",38.861595,-107.864892,23.7,11.0 - 28.6 (634),19.6,18.9 - 20.9 (639),25.3,22.1 - 56.7 (636)
8033,"""Dolores, (CO)""",209.2,52.7 - 283.1 (647),50000,"""$44,000 - $51,000 (724)""",37.733823,-108.506219,22.1,11.0 - 28.6 (634),18.2,17.0 - 18.8 (619),27.6,22.1 - 56.7 (636)
8045,"""Garfield, (CO)""",246,52.7 - 283.1 (647),74000,"""$64,000 - $152,000 (625)""",39.599352,-107.90978,24.4,11.0 - 28.6 (634),17.1,17.0 - 18.8 (619),12.7,3.2 - 15.2 (656)
1065,"""Hale, (AL)""",500.6,416.1 - 810.5 (644),41000,"""$25,000 - $44,000 (637)""",32.752796,-87.623061,45.5,38.3 - 58.9 (619),22.6,21.0 - 23.4 (617),18.8,17.6 - 19.4 (617)
8051,"""Gunnison, (CO)""",203,52.7 - 283.1 (647),60000,"""$56,000 - $64,000 (626)""",38.670499,-107.05688,14.2,11.0 - 28.6 (634),14.5,6.9 - 16.9 (649),13,3.2 - 15.2 (656)
8053,"""Hinsdale, (CO)""",241.2,52.7 - 283.1 (647),61000,"""$56,000 - $64,000 (626)""",37.811519,-107.383974,24,11.0 - 28.6 (634),13.9,6.9 - 16.9 (649),24.5,22.1 - 56.7 (636)
8067,"""La Plata, (CO)""",256.7,52.7 - 283.1 (647),78000,"""$64,000 - $152,000 (625)""",37.287367,-107.839718,18,11.0 - 28.6 (634),15.7,6.9 - 16.9 (649),16.5,15.3 - 17.5 (659)
8077,"""Mesa, (CO)""",323.7,322.2 - 360.9 (645),60000,"""$56,000 - $64,000 (626)""",39.019524,-108.460571,25.7,11.0 - 28.6 (634),17.6,17.0 - 18.8 (619),18.6,17.6 - 19.4 (617)
1067,"""Henry, (AL)""",397.7,361.0 - 416.0 (643),49000,"""$44,000 - $51,000 (724)""",31.516978,-85.239971,34.7,32.3 - 35.1 (629),21.5,21.0 - 23.4 (617),22.1,22.1 - 56.7 (636)
8079,"""Mineral, (CO)""",219.4,52.7 - 283.1 (647),63000,"""$56,000 - $64,000 (626)""",37.549067,-107.003236,18.4,11.0 - 28.6 (634),13.4,6.9 - 16.9 (649),26.8,22.1 - 56.7 (636)
8081,"""Moffat, (CO)""",275.5,52.7 - 283.1 (647),63000,"""$56,000 - $64,000 (626)""",40.610864,-108.217154,20.5,11.0 - 28.6 (634),19.8,18.9 - 20.9 (639),13.8,3.2 - 15.2 (656)
8083,"""Montezuma, (CO)""",258.5,52.7 - 283.1 (647),53000,"""$51,000 - $56,000 (529)""",37.338025,-108.595786,28.2,11.0 - 28.6 (634),18.7,17.0 - 18.8 (619),21.5,19.5 - 22.0 (652)
8085,"""Montrose, (CO)""",282.7,52.7 - 283.1 (647),51000,"""$44,000 - $51,000 (724)""",38.407507,-108.266282,20.2,11.0 - 28.6 (634),17.6,17.0 - 18.8 (619),23.1,22.1 - 56.7 (636)
1069,"""Houston, (AL)""",367.5,361.0 - 416.0 (643),50000,"""$44,000 - $51,000 (724)""",31.158183,-85.296411,38.5,38.3 - 58.9 (619),21.6,21.0 - 23.4 (617),17.2,15.3 - 17.5 (659)
8091,"""Ouray, (CO)""",160.5,52.7 - 283.1 (647),73000,"""$64,000 - $152,000 (625)""",38.154731,-107.78848,20.7,11.0 - 28.6 (634),12.8,6.9 - 16.9 (649),27.7,22.1 - 56.7 (636)
8097,"""Pitkin, (CO)""",93.8,52.7 - 283.1 (647),93000,"""$64,000 - $152,000 (625)""",39.217541,-106.916162,14.9,11.0 - 28.6 (634),11.8,6.9 - 16.9 (649),17.8,17.6 - 19.4 (617)
8103,"""Rio Blanco, (CO)""",263,52.7 - 283.1 (647),66000,"""$64,000 - $152,000 (625)""",39.972622,-108.200716,23.2,11.0 - 28.6 (634),18.2,17.0 - 18.8 (619),15.2,3.2 - 15.2 (656)
8107,"""Routt, (CO)""",126.3,52.7 - 283.1 (647),88000,"""$64,000 - $152,000 (625)""",40.483664,-106.987702,16.1,11.0 - 28.6 (634),14.5,6.9 - 16.9 (649),14.6,3.2 - 15.2 (656)
1071,"""Jackson, (AL)""",506.2,416.1 - 810.5 (644),44000,"""$25,000 - $44,000 (637)""",34.764114,-85.980056,35.3,35.2 - 38.2 (622),22.6,21.0 - 23.4 (617),19.5,19.5 - 22.0 (652)
8111,"""San Juan, (CO)""",217.5,52.7 - 283.1 (647),51000,"""$44,000 - $51,000 (724)""",37.781049,-107.670257,20.9,11.0 - 28.6 (634),16.2,6.9 - 16.9 (649),24.8,22.1 - 56.7 (636)
8113,"""San Miguel, (CO)""",91.6,52.7 - 283.1 (647),77000,"""$64,000 - $152,000 (625)""",38.009319,-108.427263,16.3,11.0 - 28.6 (634),13.8,6.9 - 16.9 (649),13.5,3.2 - 15.2 (656)
16001,"""Ada, (ID)""",285.2,283.2 - 322.1 (641),72000,"""$64,000 - $152,000 (625)""",43.451477,-116.244376,24.8,11.0 - 28.6 (634),15,6.9 - 16.9 (649),14,3.2 - 15.2 (656)
16005,"""Bannock, (ID)""",356.2,322.2 - 360.9 (645),53000,"""$51,000 - $56,000 (529)""",42.692921,-112.228982,31.2,28.7 - 32.2 (638),18.3,17.0 - 18.8 (619),13.8,3.2 - 15.2 (656)
1073,"""Jefferson, (AL)""",378.6,361.0 - 416.0 (643),54000,"""$51,000 - $56,000 (529)""",33.553444,-86.896536,34.4,32.3 - 35.1 (629),18,17.0 - 18.8 (619),15.4,15.3 - 17.5 (659)
16007,"""Bear Lake, (ID)""",291.7,283.2 - 322.1 (641),55000,"""$51,000 - $56,000 (529)""",42.285892,-111.327517,29.1,28.7 - 32.2 (638),17,17.0 - 18.8 (619),20.6,19.5 - 22.0 (652)
16011,"""Bingham, (ID)""",347.4,322.2 - 360.9 (645),60000,"""$56,000 - $64,000 (626)""",43.216357,-112.399206,33.7,32.3 - 35.1 (629),18.5,17.0 - 18.8 (619),13.7,3.2 - 15.2 (656)
16013,"""Blaine, (ID)""",155.1,52.7 - 283.1 (647),76000,"""$64,000 - $152,000 (625)""",43.394192,-113.955371,16.8,11.0 - 28.6 (634),14.7,6.9 - 16.9 (649),17.8,17.6 - 19.4 (617)
16015,"""Boise, (ID)""",225.5,52.7 - 283.1 (647),64000,"""$56,000 - $64,000 (626)""",43.987275,-115.71511,29.2,28.7 - 32.2 (638),15.3,6.9 - 16.9 (649),24.9,22.1 - 56.7 (636)
1075,"""Lamar, (AL)""",422.4,416.1 - 810.5 (644),43000,"""$25,000 - $44,000 (637)""",33.787085,-88.087431,34.5,32.3 - 35.1 (629),22.6,21.0 - 23.4 (617),21.5,19.5 - 22.0 (652)
16019,"""Bonneville, (ID)""",348.9,322.2 - 360.9 (645),65000,"""$64,000 - $152,000 (625)""",43.395171,-111.621878,29.1,28.7 - 32.2 (638),16,6.9 - 16.9 (649),13.1,3.2 - 15.2 (656)
16023,"""Butte, (ID)""",342,322.2 - 360.9 (645),52000,"""$51,000 - $56,000 (529)""",43.685101,-113.177631,26.1,11.0 - 28.6 (634),16.6,6.9 - 16.9 (649),20.8,19.5 - 22.0 (652)
16025,"""Camas, (ID)""",208.3,52.7 - 283.1 (647),56000,"""$51,000 - $56,000 (529)""",43.502552,-114.772135,30,28.7 - 32.2 (638),19.5,18.9 - 20.9 (639),18.8,17.6 - 19.4 (617)
16027,"""Canyon, (ID)""",340.6,322.2 - 360.9 (645),59000,"""$56,000 - $64,000 (626)""",43.625796,-116.709058,34.4,32.3 - 35.1 (629),18.6,17.0 - 18.8 (619),13.4,3.2 - 15.2 (656)
1077,"""Lauderdale, (AL)""",374.4,361.0 - 416.0 (643),48000,"""$44,000 - $51,000 (724)""",34.904122,-87.650997,32.5,32.3 - 35.1 (629),18.4,17.0 - 18.8 (619),19.7,19.5 - 22.0 (652)
16029,"""Caribou, (ID)""",349.8,322.2 - 360.9 (645),62000,"""$56,000 - $64,000 (626)""",42.786072,-111.544273,28,11.0 - 28.6 (634),16.6,6.9 - 16.9 (649),16.7,15.3 - 17.5 (659)
16031,"""Cassia, (ID)""",339.9,322.2 - 360.9 (645),53000,"""$51,000 - $56,000 (529)""",42.282313,-113.626328,34,32.3 - 35.1 (629),18.4,17.0 - 18.8 (619),13.8,3.2 - 15.2 (656)
16033,"""Clark, (ID)""",313.6,283.2 - 322.1 (641),49000,"""$44,000 - $51,000 (724)""",44.290218,-112.354613,26.7,11.0 - 28.6 (634),20,18.9 - 20.9 (639),14.8,3.2 - 15.2 (656)
16037,"""Custer, (ID)""",261.4,52.7 - 283.1 (647),49000,"""$44,000 - $51,000 (724)""",44.273351,-114.252267,23.9,11.0 - 28.6 (634),17.3,17.0 - 18.8 (619),32.8,22.1 - 56.7 (636)
1079,"""Lawrence, (AL)""",463.2,416.1 - 810.5 (644),48000,"""$44,000 - $51,000 (724)""",34.529776,-87.321865,32.5,32.3 - 35.1 (629),23.2,21.0 - 23.4 (617),18.1,17.6 - 19.4 (617)
16039,"""Elmore, (ID)""",321.1,283.2 - 322.1 (641),48000,"""$44,000 - $51,000 (724)""",43.394698,-115.471205,36.5,35.2 - 38.2 (622),19.3,18.9 - 20.9 (639),13,3.2 - 15.2 (656)
16041,"""Franklin, (ID)""",308.7,283.2 - 322.1 (641),55000,"""$51,000 - $56,000 (529)""",42.173609,-111.822965,29.2,28.7 - 32.2 (638),17.4,17.0 - 18.8 (619),13.8,3.2 - 15.2 (656)
16043,"""Fremont, (ID)""",301.7,283.2 - 322.1 (641),56000,"""$51,000 - $56,000 (529)""",44.218091,-111.484429,28.5,11.0 - 28.6 (634),17.7,17.0 - 18.8 (619),17,15.3 - 17.5 (659)
16045,"""Gem, (ID)""",369.1,361.0 - 416.0 (643),54000,"""$51,000 - $56,000 (529)""",44.061473,-116.398784,37.3,35.2 - 38.2 (622),19.3,18.9 - 20.9 (639),21.2,19.5 - 22.0 (652)
1081,"""Lee, (AL)""",317,283.2 - 322.1 (641),54000,"""$51,000 - $56,000 (529)""",32.604064,-85.353048,30.8,28.7 - 32.2 (638),18.5,17.0 - 18.8 (619),11.6,3.2 - 15.2 (656)
16047,"""Gooding, (ID)""",316,283.2 - 322.1 (641),50000,"""$44,000 - $51,000 (724)""",42.973185,-114.82142,31,28.7 - 32.2 (638),18.7,17.0 - 18.8 (619),16.7,15.3 - 17.5 (659)
16051,"""Jefferson, (ID)""",340.7,322.2 - 360.9 (645),63000,"""$56,000 - $64,000 (626)""",43.796965,-112.318588,35.3,35.2 - 38.2 (622),16.6,6.9 - 16.9 (649),11,3.2 - 15.2 (656)
16053,"""Jerome, (ID)""",317.9,283.2 - 322.1 (641),56000,"""$51,000 - $56,000 (529)""",42.691395,-114.262086,32,28.7 - 32.2 (638),19.3,18.9 - 20.9 (639),12.6,3.2 - 15.2 (656)
16063,"""Lincoln, (ID)""",319.1,283.2 - 322.1 (641),51000,"""$44,000 - $51,000 (724)""",42.990782,-114.153089,30.3,28.7 - 32.2 (638),19.9,18.9 - 20.9 (639),13,3.2 - 15.2 (656)
1083,"""Limestone, (AL)""",433,416.1 - 810.5 (644),65000,"""$64,000 - $152,000 (625)""",34.810239,-86.981399,32.6,32.3 - 35.1 (629),20.2,18.9 - 20.9 (639),15.1,3.2 - 15.2 (656)
16065,"""Madison, (ID)""",433.3,416.1 - 810.5 (644),46000,"""$44,000 - $51,000 (724)""",43.788614,-111.656993,28.1,11.0 - 28.6 (634),16.1,6.9 - 16.9 (649),6.6,3.2 - 15.2 (656)
16067,"""Minidoka, (ID)""",326.5,322.2 - 360.9 (645),56000,"""$51,000 - $56,000 (529)""",42.857211,-113.63984,30.8,28.7 - 32.2 (638),19.2,18.9 - 20.9 (639),15.8,15.3 - 17.5 (659)
16071,"""Oneida, (ID)""",347.7,322.2 - 360.9 (645),56000,"""$51,000 - $56,000 (529)""",42.183895,-112.520449,32.1,28.7 - 32.2 (638),17.4,17.0 - 18.8 (619),19.2,17.6 - 19.4 (617)
16073,"""Owyhee, (ID)""",313.5,283.2 - 322.1 (641),48000,"""$44,000 - $51,000 (724)""",42.572851,-116.18969,39.8,38.3 - 58.9 (619),20.2,18.9 - 20.9 (639),18,17.6 - 19.4 (617)
1085,"""Lowndes, (AL)""",426.7,416.1 - 810.5 (644),34000,"""$25,000 - $44,000 (637)""",32.147888,-86.650586,43.4,38.3 - 58.9 (619),25,23.5 - 45.7 (618),18.4,17.6 - 19.4 (617)
16075,"""Payette, (ID)""",351.8,322.2 - 360.9 (645),54000,"""$51,000 - $56,000 (529)""",44.00243,-116.750238,37.9,35.2 - 38.2 (622),18.1,17.0 - 18.8 (619),17.9,17.6 - 19.4 (617)
16077,"""Power, (ID)""",294.6,283.2 - 322.1 (641),51000,"""$44,000 - $51,000 (724)""",42.694126,-112.844407,38.5,38.3 - 58.9 (619),18.4,17.0 - 18.8 (619),15.7,15.3 - 17.5 (659)
16081,"""Teton, (ID)""",216.1,52.7 - 283.1 (647),74000,"""$64,000 - $152,000 (625)""",43.760994,-111.211765,18.9,11.0 - 28.6 (634),14.7,6.9 - 16.9 (649),10.9,3.2 - 15.2 (656)
16083,"""Twin Falls, (ID)""",321.1,283.2 - 322.1 (641),56000,"""$51,000 - $56,000 (529)""",42.352309,-114.665639,31.4,28.7 - 32.2 (638),16.5,6.9 - 16.9 (649),15.1,3.2 - 15.2 (656)
1087,"""Macon, (AL)""",549.9,416.1 - 810.5 (644),34000,"""$25,000 - $44,000 (637)""",32.387027,-85.692887,51,38.3 - 58.9 (619),20.1,18.9 - 20.9 (639),19.3,17.6 - 19.4 (617)
16087,"""Washington, (ID)""",345.9,322.2 - 360.9 (645),46000,"""$44,000 - $51,000 (724)""",44.448223,-116.797792,36.6,35.2 - 38.2 (622),18.7,17.0 - 18.8 (619),24.6,22.1 - 56.7 (636)
32001,"""Churchill, (NV)""",397.8,361.0 - 416.0 (643),56000,"""$51,000 - $56,000 (529)""",39.53771,-118.264166,31.9,28.7 - 32.2 (638),19.5,18.9 - 20.9 (639),18.7,17.6 - 19.4 (617)
32003,"""Clark, (NV)""",388.7,361.0 - 416.0 (643),62000,"""$56,000 - $64,000 (626)""",36.21413,-115.014398,27.1,11.0 - 28.6 (634),17.9,17.0 - 18.8 (619),14.5,3.2 - 15.2 (656)
32005,"""Douglas, (NV)""",254.8,52.7 - 283.1 (647),76000,"""$64,000 - $152,000 (625)""",38.905129,-119.609019,25.7,11.0 - 28.6 (634),15,6.9 - 16.9 (649),27.4,22.1 - 56.7 (636)
1089,"""Madison, (AL)""",393.1,361.0 - 416.0 (643),69000,"""$64,000 - $152,000 (625)""",34.764238,-86.55108,33.5,32.3 - 35.1 (629),16.7,6.9 - 16.9 (649),14.7,3.2 - 15.2 (656)
32007,"""Elko, (NV)""",325.7,322.2 - 360.9 (645),83000,"""$64,000 - $152,000 (625)""",41.141133,-115.351424,28.1,11.0 - 28.6 (634),21.9,21.0 - 23.4 (617),11,3.2 - 15.2 (656)
32009,"""Esmeralda, (NV)""",322.1,283.2 - 322.1 (641),51000,"""$44,000 - $51,000 (724)""",37.778966,-117.632382,24.3,11.0 - 28.6 (634),20.5,18.9 - 20.9 (639),28.5,22.1 - 56.7 (636)
32011,"""Eureka, (NV)""",331.4,322.2 - 360.9 (645),72000,"""$64,000 - $152,000 (625)""",39.977788,-116.272208,24.4,11.0 - 28.6 (634),19.4,18.9 - 20.9 (639),18,17.6 - 19.4 (617)
32013,"""Humboldt, (NV)""",346.6,322.2 - 360.9 (645),73000,"""$64,000 - $152,000 (625)""",41.407914,-118.127591,32,28.7 - 32.2 (638),20.8,18.9 - 20.9 (639),13.4,3.2 - 15.2 (656)
1091,"""Marengo, (AL)""",569.1,416.1 - 810.5 (644),39000,"""$25,000 - $44,000 (637)""",32.247591,-87.791091,45.2,38.3 - 58.9 (619),21.7,21.0 - 23.4 (617),19.3,17.6 - 19.4 (617)
32015,"""Lander, (NV)""",374.9,361.0 - 416.0 (643),81000,"""$64,000 - $152,000 (625)""",39.90021,-117.04724,30,28.7 - 32.2 (638),21.6,21.0 - 23.4 (617),14.1,3.2 - 15.2 (656)
32017,"""Lincoln, (NV)""",322.1,283.2 - 322.1 (641),59000,"""$56,000 - $64,000 (626)""",37.634605,-114.863037,28,11.0 - 28.6 (634),19,18.9 - 20.9 (639),21.9,19.5 - 22.0 (652)
32019,"""Lyon, (NV)""",339.6,322.2 - 360.9 (645),59000,"""$56,000 - $64,000 (626)""",39.022213,-119.197425,33.6,32.3 - 35.1 (629),20.4,18.9 - 20.9 (639),20.9,19.5 - 22.0 (652)
32021,"""Mineral, (NV)""",332,322.2 - 360.9 (645),44000,"""$25,000 - $44,000 (637)""",38.516647,-118.416279,38.5,38.3 - 58.9 (619),22,21.0 - 23.4 (617),30.5,22.1 - 56.7 (636)
1093,"""Marion, (AL)""",537.1,416.1 - 810.5 (644),45000,"""$44,000 - $51,000 (724)""",34.138219,-87.881551,38.7,38.3 - 58.9 (619),22.6,21.0 - 23.4 (617),21.1,19.5 - 22.0 (652)
32023,"""Nye, (NV)""",478.1,416.1 - 810.5 (644),48000,"""$44,000 - $51,000 (724)""",37.965864,-116.459011,34,32.3 - 35.1 (629),21.2,21.0 - 23.4 (617),29.7,22.1 - 56.7 (636)
32027,"""Pershing, (NV)""",359.4,322.2 - 360.9 (645),59000,"""$56,000 - $64,000 (626)""",40.439639,-118.409477,38.9,38.3 - 58.9 (619),21.3,21.0 - 23.4 (617),15.7,15.3 - 17.5 (659)
32029,"""Storey, (NV)""",338.7,322.2 - 360.9 (645),88000,"""$64,000 - $152,000 (625)""",39.438385,-119.524646,27.5,11.0 - 28.6 (634),16,6.9 - 16.9 (649),28.6,22.1 - 56.7 (636)
32031,"""Washoe, (NV)""",354.2,322.2 - 360.9 (645),72000,"""$64,000 - $152,000 (625)""",40.73132,-119.663269,23.5,11.0 - 28.6 (634),16.6,6.9 - 16.9 (649),16,15.3 - 17.5 (659)
1095,"""Marshall, (AL)""",447.1,416.1 - 810.5 (644),49000,"""$44,000 - $51,000 (724)""",34.309564,-86.321668,36.8,35.2 - 38.2 (622),22.2,21.0 - 23.4 (617),16.8,15.3 - 17.5 (659)
32033,"""White Pine, (NV)""",318.2,283.2 - 322.1 (641),60000,"""$56,000 - $64,000 (626)""",39.418176,-114.900565,30.9,28.7 - 32.2 (638),20.8,18.9 - 20.9 (639),16.5,15.3 - 17.5 (659)
32510,"""Carson City, (NV)""",375.7,361.0 - 416.0 (643),58000,"""$56,000 - $64,000 (626)""",39.15306,-119.747368,31,28.7 - 32.2 (638),18.8,17.0 - 18.8 (619),19.8,19.5 - 22.0 (652)
35003,"""Catron, (NM)""",308.4,283.2 - 322.1 (641),37000,"""$25,000 - $44,000 (637)""",33.901621,-108.391928,26.7,11.0 - 28.6 (634),16.5,6.9 - 16.9 (649),37,22.1 - 56.7 (636)
35006,"""Cibola, (NM)""",298,283.2 - 322.1 (641),40000,"""$25,000 - $44,000 (637)""",34.928272,-107.99268,34.1,32.3 - 35.1 (629),24.7,23.5 - 45.7 (618),15.6,15.3 - 17.5 (659)
1097,"""Mobile, (AL)""",449.8,416.1 - 810.5 (644),49000,"""$44,000 - $51,000 (724)""",30.684572,-88.196568,38,35.2 - 38.2 (622),20.2,18.9 - 20.9 (639),15.8,15.3 - 17.5 (659)
35013,"""Doña Ana, (NM)""",255.3,52.7 - 283.1 (647),,,32.349919,-106.834968,26.6,11.0 - 28.6 (634),14.8,6.9 - 16.9 (649),15.3,15.3 - 17.5 (659)
35017,"""Grant, (NM)""",325.3,322.2 - 360.9 (645),43000,"""$25,000 - $44,000 (637)""",32.732087,-108.381504,29.8,28.7 - 32.2 (638),15,6.9 - 16.9 (649),26.6,22.1 - 56.7 (636)
35023,"""Hidalgo, (NM)""",352,322.2 - 360.9 (645),37000,"""$25,000 - $44,000 (637)""",31.898052,-108.751929,26.6,11.0 - 28.6 (634),17.3,17.0 - 18.8 (619),21.2,19.5 - 22.0 (652)
35029,"""Luna, (NM)""",394.6,361.0 - 416.0 (643),33000,"""$25,000 - $44,000 (637)""",32.184523,-107.747191,35,32.3 - 35.1 (629),19.9,18.9 - 20.9 (639),20.5,19.5 - 22.0 (652)
1099,"""Monroe, (AL)""",386.5,361.0 - 416.0 (643),40000,"""$25,000 - $44,000 (637)""",31.580332,-87.383266,43,38.3 - 58.9 (619),23.8,23.5 - 45.7 (618),19.3,17.6 - 19.4 (617)
35031,"""McKinley, (NM)""",271.7,52.7 - 283.1 (647),36000,"""$25,000 - $44,000 (637)""",35.584062,-108.253294,38.3,38.3 - 58.9 (619),27.3,23.5 - 45.7 (618),11.9,3.2 - 15.2 (656)
35043,"""Sandoval, (NM)""",273.3,52.7 - 283.1 (647),71000,"""$64,000 - $152,000 (625)""",35.685091,-106.883119,28.3,11.0 - 28.6 (634),15.7,6.9 - 16.9 (649),17.1,15.3 - 17.5 (659)
35045,"""San Juan, (NM)""",260.2,52.7 - 283.1 (647),46000,"""$44,000 - $51,000 (724)""",36.511624,-108.324578,34.9,32.3 - 35.1 (629),23,21.0 - 23.4 (617),14.3,3.2 - 15.2 (656)
35051,"""Sierra, (NM)""",372.6,361.0 - 416.0 (643),34000,"""$25,000 - $44,000 (637)""",33.119468,-107.188161,29.5,28.7 - 32.2 (638),18.4,17.0 - 18.8 (619),35.5,22.1 - 56.7 (636)
1101,"""Montgomery, (AL)""",327.3,322.2 - 360.9 (645),53000,"""$51,000 - $56,000 (529)""",32.202881,-86.204461,37.1,35.2 - 38.2 (622),19.4,18.9 - 20.9 (639),14.6,3.2 - 15.2 (656)
35053,"""Socorro, (NM)""",309.9,283.2 - 322.1 (641),40000,"""$25,000 - $44,000 (637)""",33.991658,-106.939136,31.4,28.7 - 32.2 (638),20,18.9 - 20.9 (639),18.9,17.6 - 19.4 (617)
35061,"""Valencia, (NM)""",305,283.2 - 322.1 (641),55000,"""$51,000 - $56,000 (529)""",34.71684,-106.806582,34.3,32.3 - 35.1 (629),17.8,17.0 - 18.8 (619),17.2,15.3 - 17.5 (659)
41023,"""Grant, (OR)""",270.3,52.7 - 283.1 (647),50000,"""$44,000 - $51,000 (724)""",44.496326,-119.014057,23,11.0 - 28.6 (634),17.9,17.0 - 18.8 (619),29.2,22.1 - 56.7 (636)
41025,"""Harney, (OR)""",307.1,283.2 - 322.1 (641),40000,"""$25,000 - $44,000 (637)""",43.064449,-118.987169,31.7,28.7 - 32.2 (638),19.5,18.9 - 20.9 (639),23.9,22.1 - 56.7 (636)
1103,"""Morgan, (AL)""",481.6,416.1 - 810.5 (644),54000,"""$51,000 - $56,000 (529)""",34.454484,-86.846402,35.2,35.2 - 38.2 (622),20.1,18.9 - 20.9 (639),17.1,15.3 - 17.5 (659)
41045,"""Malheur, (OR)""",350.9,322.2 - 360.9 (645),42000,"""$25,000 - $44,000 (637)""",43.188625,-117.603191,40,38.3 - 58.9 (619),21.1,21.0 - 23.4 (617),16.4,15.3 - 17.5 (659)
49001,"""Beaver, (UT)""",367.7,361.0 - 416.0 (643),58000,"""$56,000 - $64,000 (626)""",38.357535,-113.238948,27.2,11.0 - 28.6 (634),12.5,6.9 - 16.9 (649),14.2,3.2 - 15.2 (656)
49003,"""Box Elder, (UT)""",361.2,361.0 - 416.0 (643),69000,"""$64,000 - $152,000 (625)""",41.622623,-113.060252,34,32.3 - 35.1 (629),11.4,6.9 - 16.9 (649),12.7,3.2 - 15.2 (656)
49005,"""Cache, (UT)""",275.5,52.7 - 283.1 (647),63000,"""$56,000 - $64,000 (626)""",41.734117,-111.745399,25.1,11.0 - 28.6 (634),9.7,6.9 - 16.9 (649),9.1,3.2 - 15.2 (656)
1105,"""Perry, (AL)""",478.2,416.1 - 810.5 (644),30000,"""$25,000 - $44,000 (637)""",32.639005,-87.293827,47,38.3 - 58.9 (619),24.6,23.5 - 45.7 (618),19.1,17.6 - 19.4 (617)
49007,"""Carbon, (UT)""",347.9,322.2 - 360.9 (645),52000,"""$51,000 - $56,000 (529)""",39.673284,-110.588484,30.3,28.7 - 32.2 (638),13.7,6.9 - 16.9 (649),16.8,15.3 - 17.5 (659)
49009,"""Daggett, (UT)""",280.3,52.7 - 283.1 (647),63000,"""$56,000 - $64,000 (626)""",40.890099,-109.505785,28.5,11.0 - 28.6 (634),10.7,6.9 - 16.9 (649),12.6,3.2 - 15.2 (656)
49011,"""Davis, (UT)""",302.1,283.2 - 322.1 (641),88000,"""$64,000 - $152,000 (625)""",41.037559,-112.201943,26.8,11.0 - 28.6 (634),8.5,6.9 - 16.9 (649),9.8,3.2 - 15.2 (656)
49013,"""Duchesne, (UT)""",306.3,283.2 - 322.1 (641),59000,"""$56,000 - $64,000 (626)""",40.289393,-110.429584,31.6,28.7 - 32.2 (638),15,6.9 - 16.9 (649),11.4,3.2 - 15.2 (656)
1107,"""Pickens, (AL)""",469.5,416.1 - 810.5 (644),40000,"""$25,000 - $44,000 (637)""",33.2968,-88.096864,38.8,38.3 - 58.9 (619),22.6,21.0 - 23.4 (617),18.5,17.6 - 19.4 (617)
49015,"""Emery, (UT)""",429.9,416.1 - 810.5 (644),62000,"""$56,000 - $64,000 (626)""",39.009025,-110.7211,30.9,28.7 - 32.2 (638),12.5,6.9 - 16.9 (649),16.4,15.3 - 17.5 (659)
49017,"""Garfield, (UT)""",304.2,283.2 - 322.1 (641),55000,"""$51,000 - $56,000 (529)""",37.831664,-111.450908,20.7,11.0 - 28.6 (634),12.4,6.9 - 16.9 (649),21.8,19.5 - 22.0 (652)
49019,"""Grand, (UT)""",283.5,283.2 - 322.1 (641),54000,"""$51,000 - $56,000 (529)""",38.974326,-109.57345,26.8,11.0 - 28.6 (634),12.4,6.9 - 16.9 (649),17.7,17.6 - 19.4 (617)
49021,"""Iron, (UT)""",241.4,52.7 - 283.1 (647),58000,"""$56,000 - $64,000 (626)""",37.909304,-113.30674,26.6,11.0 - 28.6 (634),13.1,6.9 - 16.9 (649),12.5,3.2 - 15.2 (656)
1109,"""Pike, (AL)""",433.9,416.1 - 810.5 (644),41000,"""$25,000 - $44,000 (637)""",31.798653,-85.941608,38.6,38.3 - 58.9 (619),19.4,18.9 - 20.9 (639),14.8,3.2 - 15.2 (656)
49023,"""Juab, (UT)""",301.9,283.2 - 322.1 (641),66000,"""$64,000 - $152,000 (625)""",39.71412,-112.790471,28.2,11.0 - 28.6 (634),13.2,6.9 - 16.9 (649),11.7,3.2 - 15.2 (656)
49025,"""Kane, (UT)""",301.6,283.2 - 322.1 (641),56000,"""$51,000 - $56,000 (529)""",37.275089,-111.815329,27.3,11.0 - 28.6 (634),11,6.9 - 16.9 (649),22.5,22.1 - 56.7 (636)
49027,"""Millard, (UT)""",269.5,52.7 - 283.1 (647),59000,"""$56,000 - $64,000 (626)""",38.956744,-113.133092,36.2,35.2 - 38.2 (622),11.5,6.9 - 16.9 (649),16.7,15.3 - 17.5 (659)
49029,"""Morgan, (UT)""",294.9,283.2 - 322.1 (641),102000,"""$64,000 - $152,000 (625)""",41.091027,-111.577885,22,11.0 - 28.6 (634),9.3,6.9 - 16.9 (649),11.4,3.2 - 15.2 (656)
1111,"""Randolph, (AL)""",562.4,416.1 - 810.5 (644),43000,"""$25,000 - $44,000 (637)""",33.296461,-85.464064,33.5,32.3 - 35.1 (629),21.6,21.0 - 23.4 (617),20.4,19.5 - 22.0 (652)
49031,"""Piute, (UT)""",351.6,322.2 - 360.9 (645),42000,"""$25,000 - $44,000 (637)""",38.335881,-112.129375,22.5,11.0 - 28.6 (634),12.8,6.9 - 16.9 (649),24.6,22.1 - 56.7 (636)
49033,"""Rich, (UT)""",258.8,52.7 - 283.1 (647),65000,"""$64,000 - $152,000 (625)""",41.627598,-111.240227,24.9,11.0 - 28.6 (634),11.4,6.9 - 16.9 (649),21.1,19.5 - 22.0 (652)
49035,"""Salt Lake, (UT)""",281.9,52.7 - 283.1 (647),80000,"""$64,000 - $152,000 (625)""",40.667883,-111.92424,26.3,11.0 - 28.6 (634),11.4,6.9 - 16.9 (649),10.6,3.2 - 15.2 (656)
49037,"""San Juan, (UT)""",211,52.7 - 283.1 (647),49000,"""$44,000 - $51,000 (724)""",37.602633,-109.791574,38.4,38.3 - 58.9 (619),18.1,17.0 - 18.8 (619),13.7,3.2 - 15.2 (656)
1113,"""Russell, (AL)""",356.7,322.2 - 360.9 (645),44000,"""$25,000 - $44,000 (637)""",32.289811,-85.18698,38.6,38.3 - 58.9 (619),22.2,21.0 - 23.4 (617),13.9,3.2 - 15.2 (656)
49039,"""Sanpete, (UT)""",292,283.2 - 322.1 (641),55000,"""$51,000 - $56,000 (529)""",39.373426,-111.576933,28.7,28.7 - 32.2 (638),12.2,6.9 - 16.9 (649),13.7,3.2 - 15.2 (656)
49041,"""Sevier, (UT)""",343.6,322.2 - 360.9 (645),59000,"""$56,000 - $64,000 (626)""",38.746824,-111.81193,29.9,28.7 - 32.2 (638),13.4,6.9 - 16.9 (649),16,15.3 - 17.5 (659)
49043,"""Summit, (UT)""",227.3,52.7 - 283.1 (647),112000,"""$64,000 - $152,000 (625)""",40.87206,-110.968486,14.3,11.0 - 28.6 (634),8.3,6.9 - 16.9 (649),11.8,3.2 - 15.2 (656)
49045,"""Tooele, (UT)""",324.5,322.2 - 360.9 (645),80000,"""$64,000 - $152,000 (625)""",40.467753,-113.123979,37.3,35.2 - 38.2 (622),12.1,6.9 - 16.9 (649),8.9,3.2 - 15.2 (656)
1115,"""St. Clair, (AL)""",415.1,361.0 - 416.0 (643),65000,"""$64,000 - $152,000 (625)""",33.719491,-86.311327,36.6,35.2 - 38.2 (622),21.1,21.0 - 23.4 (617),16.3,15.3 - 17.5 (659)
49047,"""Uintah, (UT)""",353.6,322.2 - 360.9 (645),63000,"""$56,000 - $64,000 (626)""",40.125887,-109.517748,35.9,35.2 - 38.2 (622),15.1,6.9 - 16.9 (649),10.2,3.2 - 15.2 (656)
49049,"""Utah, (UT)""",300,283.2 - 322.1 (641),80000,"""$64,000 - $152,000 (625)""",40.120425,-111.668508,26.7,11.0 - 28.6 (634),6.9,6.9 - 16.9 (649),7.6,3.2 - 15.2 (656)
49051,"""Wasatch, (UT)""",268,52.7 - 283.1 (647),92000,"""$64,000 - $152,000 (625)""",40.334884,-111.161568,24.7,11.0 - 28.6 (634),9.5,6.9 - 16.9 (649),11.1,3.2 - 15.2 (656)
49053,"""Washington, (UT)""",217.1,52.7 - 283.1 (647),64000,"""$56,000 - $64,000 (626)""",37.262531,-113.4878,24.1,11.0 - 28.6 (634),9.9,6.9 - 16.9 (649),20.9,19.5 - 22.0 (652)
1117,"""Shelby, (AL)""",289.6,283.2 - 322.1 (641),78000,"""$64,000 - $152,000 (625)""",33.263043,-86.678089,37.5,35.2 - 38.2 (622),14.7,6.9 - 16.9 (649),14.9,3.2 - 15.2 (656)
49055,"""Wayne, (UT)""",269.4,52.7 - 283.1 (647),51000,"""$44,000 - $51,000 (724)""",38.25984,-110.990877,22.4,11.0 - 28.6 (634),11.4,6.9 - 16.9 (649),20.5,19.5 - 22.0 (652)
49057,"""Weber, (UT)""",332.6,322.2 - 360.9 (645),72000,"""$64,000 - $152,000 (625)""",41.270325,-111.876883,31.7,28.7 - 32.2 (638),12.4,6.9 - 16.9 (649),11.4,3.2 - 15.2 (656)
56003,"""Big Horn, (WY)""",346.6,322.2 - 360.9 (645),53000,"""$51,000 - $56,000 (529)""",44.525117,-107.994848,32.2,28.7 - 32.2 (638),19.5,18.9 - 20.9 (639),21,19.5 - 22.0 (652)
56007,"""Carbon, (WY)""",278.5,52.7 - 283.1 (647),62000,"""$56,000 - $64,000 (626)""",41.70359,-106.933153,33.6,32.3 - 35.1 (629),21.3,21.0 - 23.4 (617),16.3,15.3 - 17.5 (659)
1119,"""Sumter, (AL)""",460.4,416.1 - 810.5 (644),29000,"""$25,000 - $44,000 (637)""",32.597481,-88.200057,43,38.3 - 58.9 (619),20.5,18.9 - 20.9 (639),17.5,15.3 - 17.5 (659)
56013,"""Fremont, (WY)""",304.9,283.2 - 322.1 (641),58000,"""$56,000 - $64,000 (626)""",43.054831,-108.608935,29.4,28.7 - 32.2 (638),20.2,18.9 - 20.9 (639),17.9,17.6 - 19.4 (617)
56017,"""Hot Springs, (WY)""",309.2,283.2 - 322.1 (641),52000,"""$51,000 - $56,000 (529)""",43.720209,-108.435076,29.6,28.7 - 32.2 (638),17,17.0 - 18.8 (619),24,22.1 - 56.7 (636)
56023,"""Lincoln, (WY)""",284.3,283.2 - 322.1 (641),71000,"""$64,000 - $152,000 (625)""",42.229993,-110.682961,25.4,11.0 - 28.6 (634),17.6,17.0 - 18.8 (619),16.7,15.3 - 17.5 (659)
56025,"""Natrona, (WY)""",297.6,283.2 - 322.1 (641),66000,"""$64,000 - $152,000 (625)""",42.977645,-106.768219,31.1,28.7 - 32.2 (638),21.5,21.0 - 23.4 (617),14.4,3.2 - 15.2 (656)
1121,"""Talladega, (AL)""",513.5,416.1 - 810.5 (644),48000,"""$44,000 - $51,000 (724)""",33.369314,-86.17593,38.8,38.3 - 58.9 (619),23.1,21.0 - 23.4 (617),17.5,15.3 - 17.5 (659)
56029,"""Park, (WY)""",298.5,283.2 - 322.1 (641),59000,"""$56,000 - $64,000 (626)""",44.492387,-109.593597,26.7,11.0 - 28.6 (634),16,6.9 - 16.9 (649),22.2,22.1 - 56.7 (636)
56035,"""Sublette, (WY)""",246.6,52.7 - 283.1 (647),78000,"""$64,000 - $152,000 (625)""",42.767928,-109.91617,28.8,28.7 - 32.2 (638),17.3,17.0 - 18.8 (619),17.8,17.6 - 19.4 (617)
56037,"""Sweetwater, (WY)""",311.6,283.2 - 322.1 (641),81000,"""$64,000 - $152,000 (625)""",41.660328,-108.875677,30.1,28.7 - 32.2 (638),18.7,17.0 - 18.8 (619),11.4,3.2 - 15.2 (656)
56039,"""Teton, (WY)""",170.5,52.7 - 283.1 (647),99000,"""$64,000 - $152,000 (625)""",44.048662,-110.426087,11,11.0 - 28.6 (634),13.2,6.9 - 16.9 (649),14,3.2 - 15.2 (656)
1123,"""Tallapoosa, (AL)""",472.3,416.1 - 810.5 (644),47000,"""$44,000 - $51,000 (724)""",32.863308,-85.799618,34.2,32.3 - 35.1 (629),22.3,21.0 - 23.4 (617),21,19.5 - 22.0 (652)
56041,"""Uinta, (WY)""",353.4,322.2 - 360.9 (645),71000,"""$64,000 - $152,000 (625)""",41.284726,-110.558947,34.9,32.3 - 35.1 (629),20.6,18.9 - 20.9 (639),13,3.2 - 15.2 (656)
56043,"""Washakie, (WY)""",314.5,283.2 - 322.1 (641),55000,"""$51,000 - $56,000 (529)""",43.878831,-107.669052,29.5,28.7 - 32.2 (638),18.1,17.0 - 18.8 (619),21.1,19.5 - 22.0 (652)
22031,"""De Soto, (LA)""",369.5,361.0 - 416.0 (643),47000,"""$44,000 - $51,000 (724)""",32.059248,-93.740797,43,38.3 - 58.9 (619),25.2,23.5 - 45.7 (618),17.2,15.3 - 17.5 (659)
48001,"""Anderson, (TX)""",482.4,416.1 - 810.5 (644),48000,"""$44,000 - $51,000 (724)""",31.841261,-95.661727,37.3,35.2 - 38.2 (622),22,21.0 - 23.4 (617),14.3,3.2 - 15.2 (656)
1125,"""Tuscaloosa, (AL)""",434.9,416.1 - 810.5 (644),52000,"""$51,000 - $56,000 (529)""",33.29022,-87.522783,36.1,35.2 - 38.2 (622),19.1,18.9 - 20.9 (639),12.9,3.2 - 15.2 (656)
48005,"""Angelina, (TX)""",395.1,361.0 - 416.0 (643),52000,"""$51,000 - $56,000 (529)""",31.251896,-94.611134,39.6,38.3 - 58.9 (619),19.7,18.9 - 20.9 (639),15.9,15.3 - 17.5 (659)
48007,"""Aransas, (TX)""",347.7,322.2 - 360.9 (645),53000,"""$51,000 - $56,000 (529)""",28.122621,-96.967501,37.7,35.2 - 38.2 (622),17.5,17.0 - 18.8 (619),27.4,22.1 - 56.7 (636)
48013,"""Atascosa, (TX)""",357.4,322.2 - 360.9 (645),57000,"""$56,000 - $64,000 (626)""",28.891478,-98.535381,40,38.3 - 58.9 (619),16.6,6.9 - 16.9 (649),14.3,3.2 - 15.2 (656)
48015,"""Austin, (TX)""",329.2,322.2 - 360.9 (645),68000,"""$64,000 - $152,000 (625)""",29.891901,-96.27017,32,28.7 - 32.2 (638),16.3,6.9 - 16.9 (649),18.7,17.6 - 19.4 (617)
1127,"""Walker, (AL)""",771.3,416.1 - 810.5 (644),46000,"""$44,000 - $51,000 (724)""",33.791558,-87.301094,39.8,38.3 - 58.9 (619),23.5,23.5 - 45.7 (618),19,17.6 - 19.4 (617)
48019,"""Bandera, (TX)""",304.6,283.2 - 322.1 (641),60000,"""$56,000 - $64,000 (626)""",29.756389,-99.248285,29.1,28.7 - 32.2 (638),16.4,6.9 - 16.9 (649),26.4,22.1 - 56.7 (636)
48021,"""Bastrop, (TX)""",339.6,322.2 - 360.9 (645),63000,"""$56,000 - $64,000 (626)""",30.100772,-97.310639,41.3,38.3 - 58.9 (619),17.6,17.0 - 18.8 (619),14.6,3.2 - 15.2 (656)
48025,"""Bee, (TX)""",436.7,416.1 - 810.5 (644),44000,"""$25,000 - $44,000 (637)""",28.416077,-97.742586,33.7,32.3 - 35.1 (629),20.3,18.9 - 20.9 (639),12,3.2 - 15.2 (656)
48027,"""Bell, (TX)""",318,283.2 - 322.1 (641),55000,"""$51,000 - $56,000 (529)""",31.04275,-97.481268,32.6,32.3 - 35.1 (629),18.2,17.0 - 18.8 (619),10.6,3.2 - 15.2 (656)
1129,"""Washington, (AL)""",421.8,416.1 - 810.5 (644),49000,"""$44,000 - $51,000 (724)""",31.408503,-88.212404,31.7,28.7 - 32.2 (638),22.9,21.0 - 23.4 (617),18.4,17.6 - 19.4 (617)
48029,"""Bexar, (TX)""",334.5,322.2 - 360.9 (645),59000,"""$56,000 - $64,000 (626)""",29.448671,-98.520147,29.7,28.7 - 32.2 (638),14.6,6.9 - 16.9 (649),11.8,3.2 - 15.2 (656)
48031,"""Blanco, (TX)""",273.3,52.7 - 283.1 (647),68000,"""$64,000 - $152,000 (625)""",30.266456,-98.399217,22.6,11.0 - 28.6 (634),15.3,6.9 - 16.9 (649),25,22.1 - 56.7 (636)
48035,"""Bosque, (TX)""",379.7,361.0 - 416.0 (643),55000,"""$51,000 - $56,000 (529)""",31.900819,-97.637641,26.3,11.0 - 28.6 (634),17.9,17.0 - 18.8 (619),24.6,22.1 - 56.7 (636)
48039,"""Brazoria, (TX)""",332.3,322.2 - 360.9 (645),84000,"""$64,000 - $152,000 (625)""",29.167817,-95.434647,31.7,28.7 - 32.2 (638),15.5,6.9 - 16.9 (649),11.6,3.2 - 15.2 (656)
1131,"""Wilcox, (AL)""",608.8,416.1 - 810.5 (644),31000,"""$25,000 - $44,000 (637)""",31.990082,-87.304935,50.3,38.3 - 58.9 (619),24.1,23.5 - 45.7 (618),19,17.6 - 19.4 (617)
48041,"""Brazos, (TX)""",313.6,283.2 - 322.1 (641),54000,"""$51,000 - $56,000 (529)""",30.656713,-96.302394,31.2,28.7 - 32.2 (638),14.9,6.9 - 16.9 (649),8.9,3.2 - 15.2 (656)
48043,"""Brewster, (TX)""",245.5,52.7 - 283.1 (647),49000,"""$44,000 - $51,000 (724)""",29.808997,-103.252458,26.2,11.0 - 28.6 (634),14.2,6.9 - 16.9 (649),22.4,22.1 - 56.7 (636)
48047,"""Brooks, (TX)""",383.1,361.0 - 416.0 (643),31000,"""$25,000 - $44,000 (637)""",27.034994,-98.215276,35,32.3 - 35.1 (629),17.3,17.0 - 18.8 (619),14.6,3.2 - 15.2 (656)
48049,"""Brown, (TX)""",415.1,361.0 - 416.0 (643),56000,"""$51,000 - $56,000 (529)""",31.764137,-98.998456,37.1,35.2 - 38.2 (622),17.9,17.0 - 18.8 (619),19.5,19.5 - 22.0 (652)
1133,"""Winston, (AL)""",457.2,416.1 - 810.5 (644),41000,"""$25,000 - $44,000 (637)""",34.154566,-87.365346,35.7,35.2 - 38.2 (622),23.3,21.0 - 23.4 (617),21.3,19.5 - 22.0 (652)
48051,"""Burleson, (TX)""",562.4,416.1 - 810.5 (644),62000,"""$56,000 - $64,000 (626)""",30.493487,-96.622091,46.2,38.3 - 58.9 (619),19,18.9 - 20.9 (639),20.4,19.5 - 22.0 (652)
48053,"""Burnet, (TX)""",277.1,52.7 - 283.1 (647),63000,"""$56,000 - $64,000 (626)""",30.78963,-98.201187,33.6,32.3 - 35.1 (629),16.6,6.9 - 16.9 (649),21.9,19.5 - 22.0 (652)
48055,"""Caldwell, (TX)""",357.9,322.2 - 360.9 (645),55000,"""$51,000 - $56,000 (529)""",29.832399,-97.628141,39,38.3 - 58.9 (619),18.3,17.0 - 18.8 (619),13.7,3.2 - 15.2 (656)
48057,"""Calhoun, (TX)""",351.2,322.2 - 360.9 (645),56000,"""$51,000 - $56,000 (529)""",28.441719,-96.579574,32,28.7 - 32.2 (638),16.8,6.9 - 16.9 (649),17.4,15.3 - 17.5 (659)
48061,"""Cameron, (TX)""",279.7,52.7 - 283.1 (647),41000,"""$25,000 - $44,000 (637)""",26.102923,-97.478958,31.2,28.7 - 32.2 (638),17.2,17.0 - 18.8 (619),13.2,3.2 - 15.2 (656)
48071,"""Chambers, (TX)""",408.5,361.0 - 416.0 (643),93000,"""$64,000 - $152,000 (625)""",29.696374,-94.669445,32.7,32.3 - 35.1 (629),18.3,17.0 - 18.8 (619),10.9,3.2 - 15.2 (656)
48073,"""Cherokee, (TX)""",445.7,416.1 - 810.5 (644),47000,"""$44,000 - $51,000 (724)""",31.843881,-95.156343,44.2,38.3 - 58.9 (619),20,18.9 - 20.9 (639),17,15.3 - 17.5 (659)
48081,"""Coke, (TX)""",328.1,322.2 - 360.9 (645),48000,"""$44,000 - $51,000 (724)""",31.87711,-100.635231,27.9,11.0 - 28.6 (634),17.2,17.0 - 18.8 (619),28.5,22.1 - 56.7 (636)
48083,"""Coleman, (TX)""",414.3,361.0 - 416.0 (643),45000,"""$44,000 - $51,000 (724)""",31.914205,-99.346622,22.2,11.0 - 28.6 (634),19.1,18.9 - 20.9 (639),24.7,22.1 - 56.7 (636)
48089,"""Colorado, (TX)""",378.5,361.0 - 416.0 (643),56000,"""$51,000 - $56,000 (529)""",29.596296,-96.508935,24.7,11.0 - 28.6 (634),17.2,17.0 - 18.8 (619),21.6,19.5 - 22.0 (652)
48091,"""Comal, (TX)""",314.3,283.2 - 322.1 (641),88000,"""$64,000 - $152,000 (625)""",29.812377,-98.258129,29.5,28.7 - 32.2 (638),14.7,6.9 - 16.9 (649),17.9,17.6 - 19.4 (617)
48093,"""Comanche, (TX)""",418.5,416.1 - 810.5 (644),54000,"""$51,000 - $56,000 (529)""",31.951645,-98.549617,24.9,11.0 - 28.6 (634),17.4,17.0 - 18.8 (619),24,22.1 - 56.7 (636)
48095,"""Concho, (TX)""",347.8,322.2 - 360.9 (645),43000,"""$25,000 - $44,000 (637)""",31.318883,-99.863649,19.6,11.0 - 28.6 (634),19.6,18.9 - 20.9 (639),20,19.5 - 22.0 (652)
48099,"""Coryell, (TX)""",342,322.2 - 360.9 (645),53000,"""$51,000 - $56,000 (529)""",31.391177,-97.798022,31.2,28.7 - 32.2 (638),20.5,18.9 - 20.9 (639),9.8,3.2 - 15.2 (656)
48103,"""Crane, (TX)""",371.5,361.0 - 416.0 (643),69000,"""$64,000 - $152,000 (625)""",31.422796,-102.487774,20.4,11.0 - 28.6 (634),15.8,6.9 - 16.9 (649),13.6,3.2 - 15.2 (656)
48105,"""Crockett, (TX)""",503.5,416.1 - 810.5 (644),54000,"""$51,000 - $56,000 (529)""",30.717532,-101.404211,30,28.7 - 32.2 (638),15.5,6.9 - 16.9 (649),15,3.2 - 15.2 (656)
48109,"""Culberson, (TX)""",308.8,283.2 - 322.1 (641),44000,"""$25,000 - $44,000 (637)""",31.445908,-104.526945,32,28.7 - 32.2 (638),20.2,18.9 - 20.9 (639),14.8,3.2 - 15.2 (656)
48123,"""DeWitt, (TX)""",368.2,361.0 - 416.0 (643),53000,"""$51,000 - $56,000 (529)""",29.082346,-97.361654,25.5,11.0 - 28.6 (634),18.8,17.0 - 18.8 (619),19.4,17.6 - 19.4 (617)
48127,"""Dimmit, (TX)""",309.5,283.2 - 322.1 (641),40000,"""$25,000 - $44,000 (637)""",28.423587,-99.765871,26.5,11.0 - 28.6 (634),18.3,17.0 - 18.8 (619),16.9,15.3 - 17.5 (659)
48131,"""Duval, (TX)""",352.2,322.2 - 360.9 (645),37000,"""$25,000 - $44,000 (637)""",27.681123,-98.497393,26,11.0 - 28.6 (634),17.3,17.0 - 18.8 (619),17.6,17.6 - 19.4 (617)
48135,"""Ector, (TX)""",414.4,361.0 - 416.0 (643),66000,"""$64,000 - $152,000 (625)""",31.865301,-102.542507,37.2,35.2 - 38.2 (622),17.4,17.0 - 18.8 (619),9.5,3.2 - 15.2 (656)
48137,"""Edwards, (TX)""",307.9,283.2 - 322.1 (641),40000,"""$25,000 - $44,000 (637)""",29.985933,-100.3074,22.9,11.0 - 28.6 (634),15.9,6.9 - 16.9 (649),30.6,22.1 - 56.7 (636)
48141,"""El Paso, (TX)""",278.6,52.7 - 283.1 (647),49000,"""$44,000 - $51,000 (724)""",31.76648,-106.241423,31.5,28.7 - 32.2 (638),14.9,6.9 - 16.9 (649),11.9,3.2 - 15.2 (656)
48145,"""Falls, (TX)""",350.2,322.2 - 360.9 (645),41000,"""$25,000 - $44,000 (637)""",31.25193,-96.934127,29,28.7 - 32.2 (638),21.6,21.0 - 23.4 (617),17.9,17.6 - 19.4 (617)
48149,"""Fayette, (TX)""",347.8,322.2 - 360.9 (645),62000,"""$56,000 - $64,000 (626)""",29.877886,-96.921231,24,11.0 - 28.6 (634),17.6,17.0 - 18.8 (619),24.6,22.1 - 56.7 (636)
48157,"""Fort Bend, (TX)""",249.4,52.7 - 283.1 (647),101000,"""$64,000 - $152,000 (625)""",29.526602,-95.771015,25.4,11.0 - 28.6 (634),12.7,6.9 - 16.9 (649),10.6,3.2 - 15.2 (656)
48161,"""Freestone, (TX)""",380.6,361.0 - 416.0 (643),53000,"""$51,000 - $56,000 (529)""",31.701749,-96.144957,39,38.3 - 58.9 (619),20.5,18.9 - 20.9 (639),19.6,19.5 - 22.0 (652)
48163,"""Frio, (TX)""",386.1,361.0 - 416.0 (643),40000,"""$25,000 - $44,000 (637)""",28.869383,-99.109005,29.4,28.7 - 32.2 (638),18.6,17.0 - 18.8 (619),12.4,3.2 - 15.2 (656)
48167,"""Galveston, (TX)""",326.3,322.2 - 360.9 (645),73000,"""$64,000 - $152,000 (625)""",29.233453,-94.888456,34.4,32.3 - 35.1 (629),18.2,17.0 - 18.8 (619),13.9,3.2 - 15.2 (656)
48171,"""Gillespie, (TX)""",275.7,52.7 - 283.1 (647),62000,"""$56,000 - $64,000 (626)""",30.325093,-98.94185,24.4,11.0 - 28.6 (634),14,6.9 - 16.9 (649),29.3,22.1 - 56.7 (636)
48173,"""Glasscock, (TX)""",337.1,322.2 - 360.9 (645),94000,"""$64,000 - $152,000 (625)""",31.868006,-101.521494,26.3,11.0 - 28.6 (634),17.8,17.0 - 18.8 (619),9.9,3.2 - 15.2 (656)
48175,"""Goliad, (TX)""",369.6,361.0 - 416.0 (643),57000,"""$56,000 - $64,000 (626)""",28.6607,-97.430415,31.1,28.7 - 32.2 (638),16.4,6.9 - 16.9 (649),22,19.5 - 22.0 (652)
48177,"""Gonzales, (TX)""",333.6,322.2 - 360.9 (645),48000,"""$44,000 - $51,000 (724)""",29.461912,-97.49192,32.8,32.3 - 35.1 (629),18.7,17.0 - 18.8 (619),16.4,15.3 - 17.5 (659)
48185,"""Grimes, (TX)""",375.4,361.0 - 416.0 (643),52000,"""$51,000 - $56,000 (529)""",30.543231,-95.988082,40.6,38.3 - 58.9 (619),20.9,18.9 - 20.9 (639),16.9,15.3 - 17.5 (659)
48187,"""Guadalupe, (TX)""",325.1,322.2 - 360.9 (645),79000,"""$64,000 - $152,000 (625)""",29.582671,-97.948995,33.3,32.3 - 35.1 (629),15.3,6.9 - 16.9 (649),13.6,3.2 - 15.2 (656)
48193,"""Hamilton, (TX)""",342.5,322.2 - 360.9 (645),53000,"""$51,000 - $56,000 (529)""",31.707342,-98.111756,25.7,11.0 - 28.6 (634),19.2,18.9 - 20.9 (639),24.5,22.1 - 56.7 (636)
48199,"""Hardin, (TX)""",460.2,416.1 - 810.5 (644),63000,"""$56,000 - $64,000 (626)""",30.329648,-94.393178,37.1,35.2 - 38.2 (622),20.3,18.9 - 20.9 (639),16.5,15.3 - 17.5 (659)
48201,"""Harris, (TX)""",303,283.2 - 322.1 (641),62000,"""$56,000 - $64,000 (626)""",29.857273,-95.393037,29.9,28.7 - 32.2 (638),15.9,6.9 - 16.9 (649),10.2,3.2 - 15.2 (656)
48209,"""Hays, (TX)""",252.7,52.7 - 283.1 (647),73000,"""$64,000 - $152,000 (625)""",30.061225,-98.029267,31.7,28.7 - 32.2 (638),14.8,6.9 - 16.9 (649),10.7,3.2 - 15.2 (656)
48215,"""Hidalgo, (TX)""",280.1,52.7 - 283.1 (647),42000,"""$25,000 - $44,000 (637)""",26.396384,-98.18099,38.3,38.3 - 58.9 (619),15.1,6.9 - 16.9 (649),10.8,3.2 - 15.2 (656)
48217,"""Hill, (TX)""",377.5,361.0 - 416.0 (643),53000,"""$51,000 - $56,000 (529)""",31.982681,-97.130668,36.9,35.2 - 38.2 (622),19,18.9 - 20.9 (639),20.5,19.5 - 22.0 (652)
48225,"""Houston, (TX)""",392.4,361.0 - 416.0 (643),44000,"""$25,000 - $44,000 (637)""",31.323036,-95.4216,28.4,11.0 - 28.6 (634),22.2,21.0 - 23.4 (617),21.3,19.5 - 22.0 (652)
48229,"""Hudspeth, (TX)""",280.4,52.7 - 283.1 (647),39000,"""$25,000 - $44,000 (637)""",31.450868,-105.377549,38.3,38.3 - 58.9 (619),21.2,21.0 - 23.4 (617),15.3,15.3 - 17.5 (659)
48235,"""Irion, (TX)""",329,322.2 - 360.9 (645),69000,"""$64,000 - $152,000 (625)""",31.303424,-100.981304,24.1,11.0 - 28.6 (634),16.2,6.9 - 16.9 (649),16.9,15.3 - 17.5 (659)
48239,"""Jackson, (TX)""",387.2,361.0 - 416.0 (643),56000,"""$51,000 - $56,000 (529)""",28.959802,-96.58908,33.2,32.3 - 35.1 (629),17.1,17.0 - 18.8 (619),17.4,15.3 - 17.5 (659)
48241,"""Jasper, (TX)""",486.2,416.1 - 810.5 (644),47000,"""$44,000 - $51,000 (724)""",30.752932,-94.022294,43.6,38.3 - 58.9 (619),21.6,21.0 - 23.4 (617),19.4,17.6 - 19.4 (617)
48243,"""Jeff Davis, (TX)""",261.9,52.7 - 283.1 (647),53000,"""$51,000 - $56,000 (529)""",30.625357,-104.191873,26,11.0 - 28.6 (634),13.7,6.9 - 16.9 (649),34,22.1 - 56.7 (636)
48245,"""Jefferson, (TX)""",464.5,416.1 - 810.5 (644),55000,"""$51,000 - $56,000 (529)""",29.854,-94.149331,41.3,38.3 - 58.9 (619),20,18.9 - 20.9 (639),14.2,3.2 - 15.2 (656)
48247,"""Jim Hogg, (TX)""",305.7,283.2 - 322.1 (641),39000,"""$25,000 - $44,000 (637)""",27.053231,-98.747572,23.2,11.0 - 28.6 (634),16.1,6.9 - 16.9 (649),14.2,3.2 - 15.2 (656)
5001,"""Arkansas, (AR)""",447.9,416.1 - 810.5 (644),53000,"""$51,000 - $56,000 (529)""",34.28957,-91.376547,35.1,32.3 - 35.1 (629),23.2,21.0 - 23.4 (617),19,17.6 - 19.4 (617)
48249,"""Jim Wells, (TX)""",519.7,416.1 - 810.5 (644),44000,"""$25,000 - $44,000 (637)""",27.733516,-98.090814,33.9,32.3 - 35.1 (629),16.6,6.9 - 16.9 (649),14.9,3.2 - 15.2 (656)
48255,"""Karnes, (TX)""",442.4,416.1 - 810.5 (644),55000,"""$51,000 - $56,000 (529)""",28.908996,-97.852205,26.9,11.0 - 28.6 (634),18.8,17.0 - 18.8 (619),14,3.2 - 15.2 (656)
48259,"""Kendall, (TX)""",307.1,283.2 - 322.1 (641),95000,"""$64,000 - $152,000 (625)""",29.943525,-98.709269,33.9,32.3 - 35.1 (629),12.7,6.9 - 16.9 (649),18.9,17.6 - 19.4 (617)
48261,"""Kenedy, (TX)""",290.5,283.2 - 322.1 (641),46000,"""$44,000 - $51,000 (724)""",26.890213,-97.591143,22,11.0 - 28.6 (634),21.7,21.0 - 23.4 (617),25.4,22.1 - 56.7 (636)
5003,"""Ashley, (AR)""",449.6,416.1 - 810.5 (644),48000,"""$44,000 - $51,000 (724)""",33.190835,-91.772267,42.2,38.3 - 58.9 (619),24.1,23.5 - 45.7 (618),19.9,19.5 - 22.0 (652)
48265,"""Kerr, (TX)""",286.1,283.2 - 322.1 (641),58000,"""$56,000 - $64,000 (626)""",30.059953,-99.353339,24.1,11.0 - 28.6 (634),15.3,6.9 - 16.9 (649),27.1,22.1 - 56.7 (636)
48267,"""Kimble, (TX)""",324.7,322.2 - 360.9 (645),45000,"""$44,000 - $51,000 (724)""",30.479472,-99.746396,31.4,28.7 - 32.2 (638),17.1,17.0 - 18.8 (619),29,22.1 - 56.7 (636)
48271,"""Kinney, (TX)""",291.2,283.2 - 322.1 (641),47000,"""$44,000 - $51,000 (724)""",29.347086,-100.4177,22.9,11.0 - 28.6 (634),18.4,17.0 - 18.8 (619),24.7,22.1 - 56.7 (636)
48273,"""Kleberg, (TX)""",478.7,416.1 - 810.5 (644),47000,"""$44,000 - $51,000 (724)""",27.438735,-97.66062,32.8,32.3 - 35.1 (629),14.7,6.9 - 16.9 (649),13,3.2 - 15.2 (656)
5005,"""Baxter, (AR)""",359.5,322.2 - 360.9 (645),42000,"""$25,000 - $44,000 (637)""",36.280268,-92.329949,31.4,28.7 - 32.2 (638),20.6,18.9 - 20.9 (639),30.8,22.1 - 56.7 (636)
48281,"""Lampasas, (TX)""",299,283.2 - 322.1 (641),59000,"""$56,000 - $64,000 (626)""",31.196731,-98.240889,33.9,32.3 - 35.1 (629),17,17.0 - 18.8 (619),18.8,17.6 - 19.4 (617)
48283,"""La Salle, (TX)""",305.4,283.2 - 322.1 (641),42000,"""$25,000 - $44,000 (637)""",28.351098,-99.096774,23.8,11.0 - 28.6 (634),15.7,6.9 - 16.9 (649),17,15.3 - 17.5 (659)
48285,"""Lavaca, (TX)""",353.7,322.2 - 360.9 (645),53000,"""$51,000 - $56,000 (529)""",29.382578,-96.923633,40.4,38.3 - 58.9 (619),17.4,17.0 - 18.8 (619),23.3,22.1 - 56.7 (636)
48287,"""Lee, (TX)""",332,322.2 - 360.9 (645),59000,"""$56,000 - $64,000 (626)""",30.321498,-96.976823,37.5,35.2 - 38.2 (622),18.6,17.0 - 18.8 (619),18.8,17.6 - 19.4 (617)
5007,"""Benton, (AR)""",346.8,322.2 - 360.9 (645),71000,"""$64,000 - $152,000 (625)""",36.337819,-94.256298,31,28.7 - 32.2 (638),18.7,17.0 - 18.8 (619),13.3,3.2 - 15.2 (656)
48289,"""Leon, (TX)""",338.4,322.2 - 360.9 (645),51000,"""$44,000 - $51,000 (724)""",31.300493,-95.995622,33.7,32.3 - 35.1 (629),19.8,18.9 - 20.9 (639),24.2,22.1 - 56.7 (636)
48291,"""Liberty, (TX)""",513.5,416.1 - 810.5 (644),53000,"""$51,000 - $56,000 (529)""",30.158508,-94.844061,37.4,35.2 - 38.2 (622),22,21.0 - 23.4 (617),13,3.2 - 15.2 (656)
48293,"""Limestone, (TX)""",397,361.0 - 416.0 (643),44000,"""$25,000 - $44,000 (637)""",31.547543,-96.593623,41.9,38.3 - 58.9 (619),21.1,21.0 - 23.4 (617),18.7,17.6 - 19.4 (617)
48297,"""Live Oak, (TX)""",369.9,361.0 - 416.0 (643),54000,"""$51,000 - $56,000 (529)""",28.351535,-98.126961,23.6,11.0 - 28.6 (634),18.9,18.9 - 20.9 (639),20.3,19.5 - 22.0 (652)
5009,"""Boone, (AR)""",522.1,416.1 - 810.5 (644),50000,"""$44,000 - $51,000 (724)""",36.304299,-93.079236,29.1,28.7 - 32.2 (638),23,21.0 - 23.4 (617),20.3,19.5 - 22.0 (652)
48299,"""Llano, (TX)""",275.3,52.7 - 283.1 (647),56000,"""$51,000 - $56,000 (529)""",30.707584,-98.68469,26.3,11.0 - 28.6 (634),15.5,6.9 - 16.9 (649),36.4,22.1 - 56.7 (636)
48301,"""Loving, (TX)""",406,361.0 - 416.0 (643),88000,"""$64,000 - $152,000 (625)""",31.844936,-103.561229,29.4,28.7 - 32.2 (638),21,21.0 - 23.4 (617),25.5,22.1 - 56.7 (636)
48307,"""McCulloch, (TX)""",421,416.1 - 810.5 (644),43000,"""$25,000 - $44,000 (637)""",31.205477,-99.359856,31,28.7 - 32.2 (638),17.5,17.0 - 18.8 (619),21.8,19.5 - 22.0 (652)
48309,"""McLennan, (TX)""",340,322.2 - 360.9 (645),51000,"""$44,000 - $51,000 (724)""",31.549596,-97.201511,34.2,32.3 - 35.1 (629),18,17.0 - 18.8 (619),14.1,3.2 - 15.2 (656)
5011,"""Bradley, (AR)""",564.6,416.1 - 810.5 (644),40000,"""$25,000 - $44,000 (637)""",33.466549,-92.169156,31.4,28.7 - 32.2 (638),23.7,23.5 - 45.7 (618),18.3,17.6 - 19.4 (617)
48311,"""McMullen, (TX)""",312.8,283.2 - 322.1 (641),68000,"""$64,000 - $152,000 (625)""",28.384922,-98.578853,24.1,11.0 - 28.6 (634),14.1,6.9 - 16.9 (649),18.3,17.6 - 19.4 (617)
48313,"""Madison, (TX)""",387.2,361.0 - 416.0 (643),46000,"""$44,000 - $51,000 (724)""",30.966878,-95.930372,29.8,28.7 - 32.2 (638),19.8,18.9 - 20.9 (639),15.2,3.2 - 15.2 (656)
48319,"""Mason, (TX)""",219.7,52.7 - 283.1 (647),55000,"""$51,000 - $56,000 (529)""",30.703916,-99.237302,25.3,11.0 - 28.6 (634),16.2,6.9 - 16.9 (649),24.4,22.1 - 56.7 (636)
48321,"""Matagorda, (TX)""",399.4,361.0 - 416.0 (643),49000,"""$44,000 - $51,000 (724)""",28.77476,-96.001532,36.2,35.2 - 38.2 (622),18.7,17.0 - 18.8 (619),16.3,15.3 - 17.5 (659)
5013,"""Calhoun, (AR)""",491.3,416.1 - 810.5 (644),48000,"""$44,000 - $51,000 (724)""",33.56046,-92.513879,25.9,11.0 - 28.6 (634),24.1,23.5 - 45.7 (618),21.2,19.5 - 22.0 (652)
48323,"""Maverick, (TX)""",289,283.2 - 322.1 (641),40000,"""$25,000 - $44,000 (637)""",28.729787,-100.316678,30.7,28.7 - 32.2 (638),17.7,17.0 - 18.8 (619),11.5,3.2 - 15.2 (656)
48325,"""Medina, (TX)""",369.6,361.0 - 416.0 (643),61000,"""$56,000 - $64,000 (626)""",29.353661,-99.111085,37,35.2 - 38.2 (622),15.5,6.9 - 16.9 (649),16.5,15.3 - 17.5 (659)
48327,"""Menard, (TX)""",338.5,322.2 - 360.9 (645),38000,"""$25,000 - $44,000 (637)""",30.885268,-99.858861,29.1,28.7 - 32.2 (638),14.8,6.9 - 16.9 (649),31.4,22.1 - 56.7 (636)
48329,"""Midland, (TX)""",340.7,322.2 - 360.9 (645),86000,"""$64,000 - $152,000 (625)""",31.814269,-102.002454,34.5,32.3 - 35.1 (629),15.4,6.9 - 16.9 (649),10.3,3.2 - 15.2 (656)
5015,"""Carroll, (AR)""",466.4,416.1 - 810.5 (644),44000,"""$25,000 - $44,000 (637)""",36.33737,-93.540972,29.4,28.7 - 32.2 (638),20.7,18.9 - 20.9 (639),22.6,22.1 - 56.7 (636)
48331,"""Milam, (TX)""",299.9,283.2 - 322.1 (641),49000,"""$44,000 - $51,000 (724)""",30.791242,-96.984395,40.6,38.3 - 58.9 (619),19.5,18.9 - 20.9 (639),20.3,19.5 - 22.0 (652)
48333,"""Mills, (TX)""",337.1,322.2 - 360.9 (645),47000,"""$44,000 - $51,000 (724)""",31.494888,-98.594623,28.2,11.0 - 28.6 (634),17.7,17.0 - 18.8 (619),30.8,22.1 - 56.7 (636)
48339,"""Montgomery, (TX)""",326.5,322.2 - 360.9 (645),89000,"""$64,000 - $152,000 (625)""",30.298801,-95.50295,29,28.7 - 32.2 (638),15.6,6.9 - 16.9 (649),12.8,3.2 - 15.2 (656)
48347,"""Nacogdoches, (TX)""",368.4,361.0 - 416.0 (643),46000,"""$44,000 - $51,000 (724)""",31.62056,-94.62025,35.3,35.2 - 38.2 (622),19.3,18.9 - 20.9 (639),14.2,3.2 - 15.2 (656)
5017,"""Chicot, (AR)""",463.1,416.1 - 810.5 (644),37000,"""$25,000 - $44,000 (637)""",33.267139,-91.297158,40.3,38.3 - 58.9 (619),24.6,23.5 - 45.7 (618),20,19.5 - 22.0 (652)
48349,"""Navarro, (TX)""",410.9,361.0 - 416.0 (643),49000,"""$44,000 - $51,000 (724)""",32.048448,-96.476909,34.8,32.3 - 35.1 (629),20.5,18.9 - 20.9 (639),16.8,15.3 - 17.5 (659)
48351,"""Newton, (TX)""",520.3,416.1 - 810.5 (644),46000,"""$44,000 - $51,000 (724)""",30.786718,-93.73925,35.2,35.2 - 38.2 (622),22.2,21.0 - 23.4 (617),20.1,19.5 - 22.0 (652)
48355,"""Nueces, (TX)""",305.3,283.2 - 322.1 (641),56000,"""$51,000 - $56,000 (529)""",27.740032,-97.516214,33.2,32.3 - 35.1 (629),15.3,6.9 - 16.9 (649),14.1,3.2 - 15.2 (656)
48361,"""Orange, (TX)""",535.9,416.1 - 810.5 (644),63000,"""$56,000 - $64,000 (626)""",30.122323,-93.8941,45.4,38.3 - 58.9 (619),20.6,18.9 - 20.9 (639),15.6,15.3 - 17.5 (659)
5019,"""Clark, (AR)""",434.4,416.1 - 810.5 (644),44000,"""$25,000 - $44,000 (637)""",34.053316,-93.176208,26.5,11.0 - 28.6 (634),18.8,17.0 - 18.8 (619),16.2,15.3 - 17.5 (659)
48371,"""Pecos, (TX)""",287,283.2 - 322.1 (641),53000,"""$51,000 - $56,000 (529)""",30.773298,-102.718153,39.1,38.3 - 58.9 (619),18.4,17.0 - 18.8 (619),12.7,3.2 - 15.2 (656)
48373,"""Polk, (TX)""",515.1,416.1 - 810.5 (644),50000,"""$44,000 - $51,000 (724)""",30.784553,-94.837338,39.6,38.3 - 58.9 (619),21.1,21.0 - 23.4 (617),18.5,17.6 - 19.4 (617)
48377,"""Presidio, (TX)""",237.1,52.7 - 283.1 (647),33000,"""$25,000 - $44,000 (637)""",30.005891,-104.261619,30.3,28.7 - 32.2 (638),19.6,18.9 - 20.9 (639),24.1,22.1 - 56.7 (636)
48383,"""Reagan, (TX)""",331.6,322.2 - 360.9 (645),67000,"""$64,000 - $152,000 (625)""",31.375191,-101.514395,27.8,11.0 - 28.6 (634),16.8,6.9 - 16.9 (649),8.2,3.2 - 15.2 (656)
5021,"""Clay, (AR)""",464,416.1 - 810.5 (644),41000,"""$25,000 - $44,000 (637)""",36.367302,-90.418704,38,35.2 - 38.2 (622),25.7,23.5 - 45.7 (618),21.1,19.5 - 22.0 (652)
48385,"""Real, (TX)""",345.9,322.2 - 360.9 (645),41000,"""$25,000 - $44,000 (637)""",29.830097,-99.812549,21.3,11.0 - 28.6 (634),18.6,17.0 - 18.8 (619),28.6,22.1 - 56.7 (636)
48389,"""Reeves, (TX)""",349,322.2 - 360.9 (645),49000,"""$44,000 - $51,000 (724)""",31.308366,-103.712706,29.3,28.7 - 32.2 (638),17.6,17.0 - 18.8 (619),12.7,3.2 - 15.2 (656)
48391,"""Refugio, (TX)""",352.1,322.2 - 360.9 (645),47000,"""$44,000 - $51,000 (724)""",28.322116,-97.162472,21.1,11.0 - 28.6 (634),16.9,6.9 - 16.9 (649),21.6,19.5 - 22.0 (652)
48395,"""Robertson, (TX)""",452,416.1 - 810.5 (644),47000,"""$44,000 - $51,000 (724)""",31.025481,-96.514941,41.6,38.3 - 58.9 (619),18.6,17.0 - 18.8 (619),19,17.6 - 19.4 (617)
5023,"""Cleburne, (AR)""",303.9,283.2 - 322.1 (641),46000,"""$44,000 - $51,000 (724)""",35.566315,-92.05995,34.2,32.3 - 35.1 (629),22,21.0 - 23.4 (617),26.8,22.1 - 56.7 (636)
48399,"""Runnels, (TX)""",390.6,361.0 - 416.0 (643),49000,"""$44,000 - $51,000 (724)""",31.845119,-99.982715,19.3,11.0 - 28.6 (634),18.2,17.0 - 18.8 (619),20.6,19.5 - 22.0 (652)
48403,"""Sabine, (TX)""",423.4,416.1 - 810.5 (644),44000,"""$25,000 - $44,000 (637)""",31.3433,-93.851913,27.9,11.0 - 28.6 (634),20.4,18.9 - 20.9 (639),30.5,22.1 - 56.7 (636)
48405,"""San Augustine, (TX)""",364.2,361.0 - 416.0 (643),40000,"""$25,000 - $44,000 (637)""",31.382449,-94.16318,36,35.2 - 38.2 (622),20.9,18.9 - 20.9 (639),26.4,22.1 - 56.7 (636)
48407,"""San Jacinto, (TX)""",381.7,361.0 - 416.0 (643),43000,"""$25,000 - $44,000 (637)""",30.574388,-95.163136,37.9,35.2 - 38.2 (622),21.8,21.0 - 23.4 (617),22.1,22.1 - 56.7 (636)
5025,"""Cleveland, (AR)""",424,416.1 - 810.5 (644),54000,"""$51,000 - $56,000 (529)""",33.893201,-92.188714,38.7,38.3 - 58.9 (619),23.6,23.5 - 45.7 (618),20.5,19.5 - 22.0 (652)
48409,"""San Patricio, (TX)""",352.7,322.2 - 360.9 (645),57000,"""$56,000 - $64,000 (626)""",28.011794,-97.517157,40.6,38.3 - 58.9 (619),17.1,17.0 - 18.8 (619),14.6,3.2 - 15.2 (656)
48411,"""San Saba, (TX)""",288.3,283.2 - 322.1 (641),46000,"""$44,000 - $51,000 (724)""",31.155138,-98.819292,32.1,28.7 - 32.2 (638),19.4,18.9 - 20.9 (639),23.1,22.1 - 56.7 (636)
48413,"""Schleicher, (TX)""",340.2,322.2 - 360.9 (645),53000,"""$51,000 - $56,000 (529)""",30.896233,-100.527216,23.9,11.0 - 28.6 (634),15.1,6.9 - 16.9 (649),18.8,17.6 - 19.4 (617)
48419,"""Shelby, (TX)""",389.2,361.0 - 416.0 (643),40000,"""$25,000 - $44,000 (637)""",31.790139,-94.142579,29.1,28.7 - 32.2 (638),22.2,21.0 - 23.4 (617),17.4,15.3 - 17.5 (659)
5027,"""Columbia, (AR)""",436.8,416.1 - 810.5 (644),43000,"""$25,000 - $44,000 (637)""",33.223038,-93.232843,43.7,38.3 - 58.9 (619),22.9,21.0 - 23.4 (617),17.1,15.3 - 17.5 (659)
48427,"""Starr, (TX)""",314.7,283.2 - 322.1 (641),33000,"""$25,000 - $44,000 (637)""",26.530903,-98.740235,32.2,28.7 - 32.2 (638),19.8,18.9 - 20.9 (639),11.2,3.2 - 15.2 (656)
48431,"""Sterling, (TX)""",384.5,361.0 - 416.0 (643),67000,"""$64,000 - $152,000 (625)""",31.835773,-101.054911,21.8,11.0 - 28.6 (634),17.4,17.0 - 18.8 (619),12.7,3.2 - 15.2 (656)
48435,"""Sutton, (TX)""",300.5,283.2 - 322.1 (641),63000,"""$56,000 - $64,000 (626)""",30.522185,-100.513359,29.1,28.7 - 32.2 (638),14.1,6.9 - 16.9 (649),18.1,17.6 - 19.4 (617)
48443,"""Terrell, (TX)""",293.1,283.2 - 322.1 (641),46000,"""$44,000 - $51,000 (724)""",30.232343,-102.072513,21.1,11.0 - 28.6 (634),16,6.9 - 16.9 (649),32.7,22.1 - 56.7 (636)
5029,"""Conway, (AR)""",413.9,361.0 - 416.0 (643),47000,"""$44,000 - $51,000 (724)""",35.265702,-92.689248,39.7,38.3 - 58.9 (619),23.2,21.0 - 23.4 (617),18.9,17.6 - 19.4 (617)
48451,"""Tom Green, (TX)""",331,322.2 - 360.9 (645),55000,"""$51,000 - $56,000 (529)""",31.398332,-100.463851,30.4,28.7 - 32.2 (638),16,6.9 - 16.9 (649),15.1,3.2 - 15.2 (656)
48453,"""Travis, (TX)""",227.5,52.7 - 283.1 (647),81000,"""$64,000 - $152,000 (625)""",30.239513,-97.69127,23.1,11.0 - 28.6 (634),13.3,6.9 - 16.9 (649),9.5,3.2 - 15.2 (656)
48455,"""Trinity, (TX)""",431.1,416.1 - 810.5 (644),44000,"""$25,000 - $44,000 (637)""",31.096675,-95.151687,25.3,11.0 - 28.6 (634),20.1,18.9 - 20.9 (639),26.2,22.1 - 56.7 (636)
48457,"""Tyler, (TX)""",476.4,416.1 - 810.5 (644),48000,"""$44,000 - $51,000 (724)""",30.769295,-94.375656,42.3,38.3 - 58.9 (619),20.3,18.9 - 20.9 (639),21.6,19.5 - 22.0 (652)
5031,"""Craighead, (AR)""",452.3,416.1 - 810.5 (644),48000,"""$44,000 - $51,000 (724)""",35.827729,-90.631421,39.5,38.3 - 58.9 (619),22,21.0 - 23.4 (617),13.5,3.2 - 15.2 (656)
48461,"""Upton, (TX)""",412.5,361.0 - 416.0 (643),59000,"""$56,000 - $64,000 (626)""",31.353816,-102.041546,24.1,11.0 - 28.6 (634),18.7,17.0 - 18.8 (619),16.7,15.3 - 17.5 (659)
48463,"""Uvalde, (TX)""",335.4,322.2 - 360.9 (645),45000,"""$44,000 - $51,000 (724)""",29.350308,-99.768427,35.9,35.2 - 38.2 (622),16.8,6.9 - 16.9 (649),16.7,15.3 - 17.5 (659)
48465,"""Val Verde, (TX)""",337.3,322.2 - 360.9 (645),45000,"""$44,000 - $51,000 (724)""",29.875285,-101.143324,26.8,11.0 - 28.6 (634),16.4,6.9 - 16.9 (649),14.1,3.2 - 15.2 (656)
48469,"""Victoria, (TX)""",351.9,322.2 - 360.9 (645),57000,"""$56,000 - $64,000 (626)""",28.79637,-96.971198,36.9,35.2 - 38.2 (622),16.6,6.9 - 16.9 (649),15.8,15.3 - 17.5 (659)
5033,"""Crawford, (AR)""",398.9,361.0 - 416.0 (643),45000,"""$44,000 - $51,000 (724)""",35.583011,-94.236219,39.1,38.3 - 58.9 (619),22.9,21.0 - 23.4 (617),16.4,15.3 - 17.5 (659)
48471,"""Walker, (TX)""",323.2,322.2 - 360.9 (645),48000,"""$44,000 - $51,000 (724)""",30.743163,-95.569825,31.9,28.7 - 32.2 (638),19.5,18.9 - 20.9 (639),12.7,3.2 - 15.2 (656)
48473,"""Waller, (TX)""",338.2,322.2 - 360.9 (645),62000,"""$56,000 - $64,000 (626)""",30.01359,-95.982149,34.8,32.3 - 35.1 (629),17.8,17.0 - 18.8 (619),11.6,3.2 - 15.2 (656)
48475,"""Ward, (TX)""",398.2,361.0 - 416.0 (643),61000,"""$56,000 - $64,000 (626)""",31.513069,-103.105113,37.8,35.2 - 38.2 (622),18,17.0 - 18.8 (619),13.8,3.2 - 15.2 (656)
48477,"""Washington, (TX)""",285.9,283.2 - 322.1 (641),59000,"""$56,000 - $64,000 (626)""",30.215075,-96.410272,36.7,35.2 - 38.2 (622),16.9,6.9 - 16.9 (649),21,19.5 - 22.0 (652)
5035,"""Crittenden, (AR)""",435.3,416.1 - 810.5 (644),42000,"""$25,000 - $44,000 (637)""",35.197559,-90.30512,36.9,35.2 - 38.2 (622),23.6,23.5 - 45.7 (618),13.6,3.2 - 15.2 (656)
48479,"""Webb, (TX)""",288.7,283.2 - 322.1 (641),53000,"""$51,000 - $56,000 (529)""",27.760799,-99.340752,37.3,35.2 - 38.2 (622),16.6,6.9 - 16.9 (649),9.2,3.2 - 15.2 (656)
48481,"""Wharton, (TX)""",403.7,361.0 - 416.0 (643),50000,"""$44,000 - $51,000 (724)""",29.27848,-96.229674,36.7,35.2 - 38.2 (622),18.4,17.0 - 18.8 (619),16.6,15.3 - 17.5 (659)
48489,"""Willacy, (TX)""",279.7,52.7 - 283.1 (647),36000,"""$25,000 - $44,000 (637)""",26.481861,-97.594731,37.9,35.2 - 38.2 (622),19.5,18.9 - 20.9 (639),13.7,3.2 - 15.2 (656)
48491,"""Williamson, (TX)""",236.5,52.7 - 283.1 (647),93000,"""$64,000 - $152,000 (625)""",30.649082,-97.605065,31.1,28.7 - 32.2 (638),12,6.9 - 16.9 (649),11.8,3.2 - 15.2 (656)
5037,"""Cross, (AR)""",459.7,416.1 - 810.5 (644),45000,"""$44,000 - $51,000 (724)""",35.285692,-90.763984,41.9,38.3 - 58.9 (619),24.5,23.5 - 45.7 (618),18.3,17.6 - 19.4 (617)
48493,"""Wilson, (TX)""",330,322.2 - 360.9 (645),77000,"""$64,000 - $152,000 (625)""",29.173883,-98.086734,34.6,32.3 - 35.1 (629),16,6.9 - 16.9 (649),15.4,15.3 - 17.5 (659)
48495,"""Winkler, (TX)""",421.5,416.1 - 810.5 (644),65000,"""$64,000 - $152,000 (625)""",31.832862,-103.054925,37.4,35.2 - 38.2 (622),18.6,17.0 - 18.8 (619),11.5,3.2 - 15.2 (656)
48505,"""Zapata, (TX)""",286,283.2 - 322.1 (641),36000,"""$25,000 - $44,000 (637)""",26.996981,-99.182603,30.2,28.7 - 32.2 (638),19.5,18.9 - 20.9 (639),13.8,3.2 - 15.2 (656)
48507,"""Zavala, (TX)""",449.7,416.1 - 810.5 (644),33000,"""$25,000 - $44,000 (637)""",28.864652,-99.75983,28.6,11.0 - 28.6 (634),19.6,18.9 - 20.9 (639),13.8,3.2 - 15.2 (656)
5039,"""Dallas, (AR)""",433.5,416.1 - 810.5 (644),41000,"""$25,000 - $44,000 (637)""",33.967823,-92.653999,40.1,38.3 - 58.9 (619),22.6,21.0 - 23.4 (617),22.2,22.1 - 56.7 (636)
5047,"""Franklin, (AR)""",462.5,416.1 - 810.5 (644),46000,"""$44,000 - $51,000 (724)""",35.508558,-93.887665,42.3,38.3 - 58.9 (619),25,23.5 - 45.7 (618),19.2,17.6 - 19.4 (617)
5057,"""Hempstead, (AR)""",477.2,416.1 - 810.5 (644),41000,"""$25,000 - $44,000 (637)""",33.735953,-93.664355,31.5,28.7 - 32.2 (638),23.9,23.5 - 45.7 (618),17.9,17.6 - 19.4 (617)
5041,"""Desha, (AR)""",713.1,416.1 - 810.5 (644),37000,"""$25,000 - $44,000 (637)""",33.828752,-91.244103,47.1,38.3 - 58.9 (619),26.4,23.5 - 45.7 (618),18.7,17.6 - 19.4 (617)
5061,"""Howard, (AR)""",569.3,416.1 - 810.5 (644),41000,"""$25,000 - $44,000 (637)""",34.083064,-93.990931,42.4,38.3 - 58.9 (619),24,23.5 - 45.7 (618),17.6,17.6 - 19.4 (617)
5081,"""Little River, (AR)""",452.3,416.1 - 810.5 (644),43000,"""$25,000 - $44,000 (637)""",33.701941,-94.236287,33.4,32.3 - 35.1 (629),22.8,21.0 - 23.4 (617),20.6,19.5 - 22.0 (652)
5083,"""Logan, (AR)""",444.4,416.1 - 810.5 (644),42000,"""$25,000 - $44,000 (637)""",35.218654,-93.72091,30.2,28.7 - 32.2 (638),24.3,23.5 - 45.7 (618),19.8,19.5 - 22.0 (652)
5087,"""Madison, (AR)""",581.2,416.1 - 810.5 (644),48000,"""$44,000 - $51,000 (724)""",36.012545,-93.724053,30.8,28.7 - 32.2 (638),24.6,23.5 - 45.7 (618),18.9,17.6 - 19.4 (617)
5043,"""Drew, (AR)""",353.6,322.2 - 360.9 (645),44000,"""$25,000 - $44,000 (637)""",33.587242,-91.722778,34.7,32.3 - 35.1 (629),22.5,21.0 - 23.4 (617),17,15.3 - 17.5 (659)
5091,"""Miller, (AR)""",453.5,416.1 - 810.5 (644),51000,"""$44,000 - $51,000 (724)""",33.305505,-93.901502,39,38.3 - 58.9 (619),24.3,23.5 - 45.7 (618),16.4,15.3 - 17.5 (659)
5113,"""Polk, (AR)""",484.4,416.1 - 810.5 (644),40000,"""$25,000 - $44,000 (637)""",34.490915,-94.230884,36.1,35.2 - 38.2 (622),23.1,21.0 - 23.4 (617),22.4,22.1 - 56.7 (636)
5127,"""Scott, (AR)""",439.1,416.1 - 810.5 (644),38000,"""$25,000 - $44,000 (637)""",34.858869,-94.063641,37.6,35.2 - 38.2 (622),26.2,23.5 - 45.7 (618),20.7,19.5 - 22.0 (652)
5131,"""Sebastian, (AR)""",412.2,361.0 - 416.0 (643),49000,"""$44,000 - $51,000 (724)""",35.196981,-94.274989,34.8,32.3 - 35.1 (629),23.2,21.0 - 23.4 (617),15.6,15.3 - 17.5 (659)
5045,"""Faulkner, (AR)""",373.1,361.0 - 416.0 (643),58000,"""$56,000 - $64,000 (626)""",35.146548,-92.336928,36.5,35.2 - 38.2 (622),20.3,18.9 - 20.9 (639),12.2,3.2 - 15.2 (656)
5133,"""Sevier, (AR)""",412.5,361.0 - 416.0 (643),43000,"""$25,000 - $44,000 (637)""",33.994877,-94.243279,32.4,32.3 - 35.1 (629),24.1,23.5 - 45.7 (618),13.9,3.2 - 15.2 (656)
5143,"""Washington, (AR)""",691.3,416.1 - 810.5 (644),52000,"""$51,000 - $56,000 (529)""",35.978001,-94.217269,32,28.7 - 32.2 (638),20.5,18.9 - 20.9 (639),11.4,3.2 - 15.2 (656)
8001,"""Adams, (CO)""",256.3,52.7 - 283.1 (647),75000,"""$64,000 - $152,000 (625)""",39.874325,-104.331872,28.5,11.0 - 28.6 (634),19,18.9 - 20.9 (639),10.1,3.2 - 15.2 (656)
8003,"""Alamosa, (CO)""",319.7,283.2 - 322.1 (641),38000,"""$25,000 - $44,000 (637)""",37.568442,-105.788041,31.1,28.7 - 32.2 (638),18.3,17.0 - 18.8 (619),13.2,3.2 - 15.2 (656)
8005,"""Arapahoe, (CO)""",220.6,52.7 - 283.1 (647),82000,"""$64,000 - $152,000 (625)""",39.644554,-104.331706,22.5,11.0 - 28.6 (634),15.2,6.9 - 16.9 (649),12.7,3.2 - 15.2 (656)
8009,"""Baca, (CO)""",290.3,283.2 - 322.1 (641),39000,"""$25,000 - $44,000 (637)""",37.30978,-102.543741,31.6,28.7 - 32.2 (638),19.5,18.9 - 20.9 (639),26,22.1 - 56.7 (636)
8011,"""Bent, (CO)""",361.1,361.0 - 416.0 (643),36000,"""$25,000 - $44,000 (637)""",37.931891,-103.077584,33,32.3 - 35.1 (629),22,21.0 - 23.4 (617),17.9,17.6 - 19.4 (617)
8013,"""Boulder, (CO)""",209.1,52.7 - 283.1 (647),88000,"""$64,000 - $152,000 (625)""",40.094963,-105.397704,14.2,11.0 - 28.6 (634),12.3,6.9 - 16.9 (649),13.7,3.2 - 15.2 (656)
5049,"""Fulton, (AR)""",389.3,361.0 - 416.0 (643),33000,"""$25,000 - $44,000 (637)""",36.381322,-91.819285,32.3,32.3 - 35.1 (629),25.2,23.5 - 45.7 (618),25.5,22.1 - 56.7 (636)
8014,"""Broomfield, (CO)""",217.8,52.7 - 283.1 (647),107000,"""$64,000 - $152,000 (625)""",39.953593,-105.050787,19.3,11.0 - 28.6 (634),12.6,6.9 - 16.9 (649),13.3,3.2 - 15.2 (656)
8015,"""Chaffee, (CO)""",192.7,52.7 - 283.1 (647),60000,"""$56,000 - $64,000 (626)""",38.734599,-106.300025,16.2,11.0 - 28.6 (634),16.3,6.9 - 16.9 (649),25,22.1 - 56.7 (636)
8017,"""Cheyenne, (CO)""",267.2,52.7 - 283.1 (647),52000,"""$51,000 - $56,000 (529)""",38.835646,-102.601791,24.1,11.0 - 28.6 (634),17.7,17.0 - 18.8 (619),16.5,15.3 - 17.5 (659)
8019,"""Clear Creek, (CO)""",214.6,52.7 - 283.1 (647),80000,"""$64,000 - $152,000 (625)""",39.689403,-105.670783,21.4,11.0 - 28.6 (634),13.7,6.9 - 16.9 (649),19.4,17.6 - 19.4 (617)
5051,"""Garland, (AR)""",441.1,416.1 - 810.5 (644),46000,"""$44,000 - $51,000 (724)""",34.578852,-93.146932,29.1,28.7 - 32.2 (638),20.8,18.9 - 20.9 (639),23.3,22.1 - 56.7 (636)
8021,"""Conejos, (CO)""",295.5,283.2 - 322.1 (641),41000,"""$25,000 - $44,000 (637)""",37.213406,-106.176447,27,11.0 - 28.6 (634),17.9,17.0 - 18.8 (619),18.6,17.6 - 19.4 (617)
8023,"""Costilla, (CO)""",242.5,52.7 - 283.1 (647),35000,"""$25,000 - $44,000 (637)""",37.277547,-105.42894,24.8,11.0 - 28.6 (634),18.4,17.0 - 18.8 (619),27.3,22.1 - 56.7 (636)
8025,"""Crowley, (CO)""",268.8,52.7 - 283.1 (647),38000,"""$25,000 - $44,000 (637)""",38.30618,-103.772736,29.4,28.7 - 32.2 (638),24.3,23.5 - 45.7 (618),13.4,3.2 - 15.2 (656)
8027,"""Custer, (CO)""",232.4,52.7 - 283.1 (647),57000,"""$56,000 - $64,000 (626)""",38.101996,-105.373512,21.6,11.0 - 28.6 (634),15.1,6.9 - 16.9 (649),36,22.1 - 56.7 (636)
5053,"""Grant, (AR)""",387.2,361.0 - 416.0 (643),59000,"""$56,000 - $64,000 (626)""",34.285568,-92.422979,34.3,32.3 - 35.1 (629),21.7,21.0 - 23.4 (617),17.8,17.6 - 19.4 (617)
8031,"""Denver, (CO)""",257.9,52.7 - 283.1 (647),75000,"""$64,000 - $152,000 (625)""",39.76185,-104.881105,17.7,11.0 - 28.6 (634),16.1,6.9 - 16.9 (649),11.5,3.2 - 15.2 (656)
8035,"""Douglas, (CO)""",168.4,52.7 - 283.1 (647),124000,"""$64,000 - $152,000 (625)""",39.325414,-104.925987,19.9,11.0 - 28.6 (634),10.8,6.9 - 16.9 (649),11.4,3.2 - 15.2 (656)
8037,"""Eagle, (CO)""",127.7,52.7 - 283.1 (647),89000,"""$64,000 - $152,000 (625)""",39.626992,-106.695169,16,11.0 - 28.6 (634),13.9,6.9 - 16.9 (649),10.7,3.2 - 15.2 (656)
8039,"""Elbert, (CO)""",236,52.7 - 283.1 (647),102000,"""$64,000 - $152,000 (625)""",39.315157,-104.114076,24.8,11.0 - 28.6 (634),14.8,6.9 - 16.9 (649),15.5,15.3 - 17.5 (659)
5055,"""Greene, (AR)""",416.9,416.1 - 810.5 (644),47000,"""$44,000 - $51,000 (724)""",36.120607,-90.566346,38.1,35.2 - 38.2 (622),24.2,23.5 - 45.7 (618),15.7,15.3 - 17.5 (659)
8041,"""El Paso, (CO)""",267,52.7 - 283.1 (647),73000,"""$64,000 - $152,000 (625)""",38.827383,-104.527472,22.8,11.0 - 28.6 (634),15.2,6.9 - 16.9 (649),12.5,3.2 - 15.2 (656)
8043,"""Fremont, (CO)""",301.9,283.2 - 322.1 (641),52000,"""$51,000 - $56,000 (529)""",38.45517,-105.424958,30.5,28.7 - 32.2 (638),20.5,18.9 - 20.9 (639),21.2,19.5 - 22.0 (652)
8047,"""Gilpin, (CO)""",238.6,52.7 - 283.1 (647),75000,"""$64,000 - $152,000 (625)""",39.861156,-105.528878,21.4,11.0 - 28.6 (634),14.6,6.9 - 16.9 (649),17.9,17.6 - 19.4 (617)
8049,"""Grand, (CO)""",163.5,52.7 - 283.1 (647),71000,"""$64,000 - $152,000 (625)""",40.113065,-106.110837,17.8,11.0 - 28.6 (634),16.9,6.9 - 16.9 (649),16.7,15.3 - 17.5 (659)
8055,"""Huerfano, (CO)""",268.9,52.7 - 283.1 (647),40000,"""$25,000 - $44,000 (637)""",37.687815,-104.959928,26.5,11.0 - 28.6 (634),15.7,6.9 - 16.9 (649),31.2,22.1 - 56.7 (636)
8057,"""Jackson, (CO)""",210.1,52.7 - 283.1 (647),54000,"""$51,000 - $56,000 (529)""",40.663432,-106.329248,24.4,11.0 - 28.6 (634),18.8,17.0 - 18.8 (619),28.3,22.1 - 56.7 (636)
8059,"""Jefferson, (CO)""",259.9,52.7 - 283.1 (647),90000,"""$64,000 - $152,000 (625)""",39.579511,-105.245462,20.8,11.0 - 28.6 (634),14.6,6.9 - 16.9 (649),16,15.3 - 17.5 (659)
8061,"""Kiowa, (CO)""",334.8,322.2 - 360.9 (645),47000,"""$44,000 - $51,000 (724)""",38.387663,-102.756849,28.7,28.7 - 32.2 (638),18,17.0 - 18.8 (619),24.7,22.1 - 56.7 (636)
5059,"""Hot Spring, (AR)""",416.3,416.1 - 810.5 (644),46000,"""$44,000 - $51,000 (724)""",34.315177,-92.944147,35,32.3 - 35.1 (629),23.9,23.5 - 45.7 (618),18.7,17.6 - 19.4 (617)
8063,"""Kit Carson, (CO)""",250.1,52.7 - 283.1 (647),43000,"""$25,000 - $44,000 (637)""",39.30534,-102.603023,32.3,32.3 - 35.1 (629),18.2,17.0 - 18.8 (619),18.3,17.6 - 19.4 (617)
8065,"""Lake, (CO)""",132.7,52.7 - 283.1 (647),57000,"""$56,000 - $64,000 (626)""",39.205341,-106.350079,27.1,11.0 - 28.6 (634),18.6,17.0 - 18.8 (619),10.6,3.2 - 15.2 (656)
8069,"""Larimer, (CO)""",224.1,52.7 - 283.1 (647),75000,"""$64,000 - $152,000 (625)""",40.658093,-105.486764,20.8,11.0 - 28.6 (634),13.8,6.9 - 16.9 (649),15.1,3.2 - 15.2 (656)
8071,"""Las Animas, (CO)""",269.3,52.7 - 283.1 (647),43000,"""$25,000 - $44,000 (637)""",37.318831,-104.04411,31.5,28.7 - 32.2 (638),17,17.0 - 18.8 (619),23.7,22.1 - 56.7 (636)
8073,"""Lincoln, (CO)""",259.8,52.7 - 283.1 (647),43000,"""$25,000 - $44,000 (637)""",38.99374,-103.507555,30.1,28.7 - 32.2 (638),20.3,18.9 - 20.9 (639),17.4,15.3 - 17.5 (659)
8075,"""Logan, (CO)""",280.8,52.7 - 283.1 (647),58000,"""$56,000 - $64,000 (626)""",40.728091,-103.090464,36.2,35.2 - 38.2 (622),18.5,17.0 - 18.8 (619),17.1,15.3 - 17.5 (659)
8087,"""Morgan, (CO)""",255.3,52.7 - 283.1 (647),58000,"""$56,000 - $64,000 (626)""",40.263159,-103.81221,34.9,32.3 - 35.1 (629),19,18.9 - 20.9 (639),15.4,15.3 - 17.5 (659)
8089,"""Otero, (CO)""",384.1,361.0 - 416.0 (643),44000,"""$25,000 - $44,000 (637)""",37.88417,-103.72126,34.7,32.3 - 35.1 (629),19.4,18.9 - 20.9 (639),20.1,19.5 - 22.0 (652)
5063,"""Independence, (AR)""",472.9,416.1 - 810.5 (644),48000,"""$44,000 - $51,000 (724)""",35.737499,-91.559942,29.7,28.7 - 32.2 (638),23.4,21.0 - 23.4 (617),17.2,15.3 - 17.5 (659)
8093,"""Park, (CO)""",203.4,52.7 - 283.1 (647),77000,"""$64,000 - $152,000 (625)""",39.118914,-105.717648,19.5,11.0 - 28.6 (634),15.5,6.9 - 16.9 (649),20,19.5 - 22.0 (652)
8095,"""Phillips, (CO)""",285.2,283.2 - 322.1 (641),53000,"""$51,000 - $56,000 (529)""",40.594712,-102.345105,31.7,28.7 - 32.2 (638),16.2,6.9 - 16.9 (649),17.3,15.3 - 17.5 (659)
8099,"""Prowers, (CO)""",259.4,52.7 - 283.1 (647),47000,"""$44,000 - $51,000 (724)""",37.958181,-102.392161,35.7,35.2 - 38.2 (622),18.3,17.0 - 18.8 (619),17.4,15.3 - 17.5 (659)
8101,"""Pueblo, (CO)""",241.6,52.7 - 283.1 (647),51000,"""$44,000 - $51,000 (724)""",38.162765,-104.484668,31,28.7 - 32.2 (638),19.1,18.9 - 20.9 (639),18.2,17.6 - 19.4 (617)
5065,"""Izard, (AR)""",404.6,361.0 - 416.0 (643),40000,"""$25,000 - $44,000 (637)""",36.094879,-91.913625,32.7,32.3 - 35.1 (629),22.5,21.0 - 23.4 (617),25,22.1 - 56.7 (636)
8105,"""Rio Grande, (CO)""",278.3,52.7 - 283.1 (647),48000,"""$44,000 - $51,000 (724)""",37.485853,-106.453128,29.1,28.7 - 32.2 (638),17,17.0 - 18.8 (619),19.4,17.6 - 19.4 (617)
8109,"""Saguache, (CO)""",208,52.7 - 283.1 (647),37000,"""$25,000 - $44,000 (637)""",38.031651,-106.234666,26.8,11.0 - 28.6 (634),19,18.9 - 20.9 (639),22.4,22.1 - 56.7 (636)
8115,"""Sedgwick, (CO)""",299.1,283.2 - 322.1 (641),43000,"""$25,000 - $44,000 (637)""",40.871568,-102.355358,25.7,11.0 - 28.6 (634),17.5,17.0 - 18.8 (619),23.1,22.1 - 56.7 (636)
8117,"""Summit, (CO)""",83.4,52.7 - 283.1 (647),87000,"""$64,000 - $152,000 (625)""",39.621023,-106.137555,15.3,11.0 - 28.6 (634),15.1,6.9 - 16.9 (649),12.8,3.2 - 15.2 (656)
5067,"""Jackson, (AR)""",468.3,416.1 - 810.5 (644),39000,"""$25,000 - $44,000 (637)""",35.596467,-91.223205,38.9,38.3 - 58.9 (619),27.2,23.5 - 45.7 (618),17.5,15.3 - 17.5 (659)
8119,"""Teller, (CO)""",252.1,52.7 - 283.1 (647),71000,"""$64,000 - $152,000 (625)""",38.869976,-105.187365,22.2,11.0 - 28.6 (634),16,6.9 - 16.9 (649),21.1,19.5 - 22.0 (652)
8121,"""Washington, (CO)""",238.8,52.7 - 283.1 (647),53000,"""$51,000 - $56,000 (529)""",39.96579,-103.209744,29.5,28.7 - 32.2 (638),18.8,17.0 - 18.8 (619),20.1,19.5 - 22.0 (652)
8123,"""Weld, (CO)""",235.9,52.7 - 283.1 (647),78000,"""$64,000 - $152,000 (625)""",40.555961,-104.383666,29,28.7 - 32.2 (638),17.2,17.0 - 18.8 (619),11.9,3.2 - 15.2 (656)
8125,"""Yuma, (CO)""",262.5,52.7 - 283.1 (647),53000,"""$51,000 - $56,000 (529)""",40.00077,-102.421649,30.5,28.7 - 32.2 (638),18,17.0 - 18.8 (619),18.2,17.6 - 19.4 (617)
5069,"""Jefferson, (AR)""",479.6,416.1 - 810.5 (644),41000,"""$25,000 - $44,000 (637)""",34.277239,-91.929673,42.8,38.3 - 58.9 (619),23.7,23.5 - 45.7 (618),16.8,15.3 - 17.5 (659)
19001,"""Adair, (IA)""",293.1,283.2 - 322.1 (641),58000,"""$56,000 - $64,000 (626)""",41.328528,-94.478164,29.7,28.7 - 32.2 (638),18.6,17.0 - 18.8 (619),22.1,22.1 - 56.7 (636)
19003,"""Adams, (IA)""",399.9,361.0 - 416.0 (643),53000,"""$51,000 - $56,000 (529)""",41.021656,-94.696906,36.9,35.2 - 38.2 (622),18.2,17.0 - 18.8 (619),22.8,22.1 - 56.7 (636)
19009,"""Audubon, (IA)""",305.7,283.2 - 322.1 (641),53000,"""$51,000 - $56,000 (529)""",41.679178,-94.904312,32.6,32.3 - 35.1 (629),17.9,17.0 - 18.8 (619),24.3,22.1 - 56.7 (636)
19015,"""Boone, (IA)""",345.2,322.2 - 360.9 (645),64000,"""$56,000 - $64,000 (626)""",42.038623,-93.938605,39.1,38.3 - 58.9 (619),17.5,17.0 - 18.8 (619),17.7,17.6 - 19.4 (617)
5071,"""Johnson, (AR)""",433.3,416.1 - 810.5 (644),40000,"""$25,000 - $44,000 (637)""",35.573359,-93.466322,40.9,38.3 - 58.9 (619),24.6,23.5 - 45.7 (618),16.2,15.3 - 17.5 (659)
19021,"""Buena Vista, (IA)""",331.9,322.2 - 360.9 (645),57000,"""$56,000 - $64,000 (626)""",42.741522,-95.141432,35.7,35.2 - 38.2 (622),18.7,17.0 - 18.8 (619),15.1,3.2 - 15.2 (656)
19025,"""Calhoun, (IA)""",360.7,322.2 - 360.9 (645),57000,"""$56,000 - $64,000 (626)""",42.38617,-94.643683,35.5,35.2 - 38.2 (622),18.1,17.0 - 18.8 (619),22.8,22.1 - 56.7 (636)
19027,"""Carroll, (IA)""",317.6,283.2 - 322.1 (641),61000,"""$56,000 - $64,000 (626)""",42.039502,-94.86765,37.3,35.2 - 38.2 (622),17.2,17.0 - 18.8 (619),19.7,19.5 - 22.0 (652)
19029,"""Cass, (IA)""",381.1,361.0 - 416.0 (643),54000,"""$51,000 - $56,000 (529)""",41.333824,-94.933302,32.4,32.3 - 35.1 (629),18.7,17.0 - 18.8 (619),22.6,22.1 - 56.7 (636)
5073,"""Lafayette, (AR)""",415.3,361.0 - 416.0 (643),37000,"""$25,000 - $44,000 (637)""",33.240629,-93.611514,46.1,38.3 - 58.9 (619),22.9,21.0 - 23.4 (617),23.3,22.1 - 56.7 (636)
19035,"""Cherokee, (IA)""",323.2,322.2 - 360.9 (645),60000,"""$56,000 - $64,000 (626)""",42.742737,-95.633262,35,32.3 - 35.1 (629),17.4,17.0 - 18.8 (619),23.5,22.1 - 56.7 (636)
19039,"""Clarke, (IA)""",379.5,361.0 - 416.0 (643),58000,"""$56,000 - $64,000 (626)""",41.029726,-93.785259,40.2,38.3 - 58.9 (619),19.2,18.9 - 20.9 (639),17.9,17.6 - 19.4 (617)
19041,"""Clay, (IA)""",317.3,283.2 - 322.1 (641),57000,"""$56,000 - $64,000 (626)""",43.081224,-95.149875,29.4,28.7 - 32.2 (638),18,17.0 - 18.8 (619),20.5,19.5 - 22.0 (652)
19047,"""Crawford, (IA)""",300.1,283.2 - 322.1 (641),58000,"""$56,000 - $64,000 (626)""",42.043119,-95.38909,37.1,35.2 - 38.2 (622),19.4,18.9 - 20.9 (639),17,15.3 - 17.5 (659)
5075,"""Lawrence, (AR)""",444.7,416.1 - 810.5 (644),40000,"""$25,000 - $44,000 (637)""",36.041098,-91.101153,38,35.2 - 38.2 (622),24.5,23.5 - 45.7 (618),19.3,17.6 - 19.4 (617)
19049,"""Dallas, (IA)""",256.8,52.7 - 283.1 (647),98000,"""$64,000 - $152,000 (625)""",41.68532,-94.040706,29.5,28.7 - 32.2 (638),13.6,6.9 - 16.9 (649),11.9,3.2 - 15.2 (656)
19053,"""Decatur, (IA)""",394.1,361.0 - 416.0 (643),45000,"""$44,000 - $51,000 (724)""",40.736379,-93.78458,34.8,32.3 - 35.1 (629),19,18.9 - 20.9 (639),19.6,19.5 - 22.0 (652)
